[
  {
    "stopid": "30972081",
    "stopname": "Poynter Dr Before Griffell Wy",
    "lat": -31.8393174,
    "lon": 115.775063
  },
  {
    "stopid": "30975979",
    "stopname": "Cockman Rd After Mulligan Dr",
    "lat": -31.831404,
    "lon": 115.8149837
  },
  {
    "stopid": "244314822",
    "stopname": "Main Street After Tome Way",
    "lat": -31.7850314,
    "lon": 115.9656084
  },
  {
    "stopid": "244314825",
    "stopname": "The Parkway after Villa Pass",
    "lat": -31.7837215,
    "lon": 115.967553
  },
  {
    "stopid": "244314854",
    "stopname": "The Parkway after Pinaster Parade",
    "lat": -31.7849149,
    "lon": 115.9726067
  },
  {
    "stopid": "244314855",
    "stopname": "Woodlake Boulevard after Parrotbush Crescent",
    "lat": -31.7909895,
    "lon": 115.9718942
  },
  {
    "stopid": "244491134",
    "stopname": "Highpoint Boulevard before Bronzewing Avenue",
    "lat": -31.7897972,
    "lon": 115.9731141
  },
  {
    "stopid": "244491136",
    "stopname": "Sunray Circle after Woodlake Boulevard",
    "lat": -31.7897419,
    "lon": 115.9730004
  },
  {
    "stopid": "244759141",
    "stopname": "Gnangara Road before Losino Boulevard",
    "lat": -31.7957896,
    "lon": 115.9703155
  },
  {
    "stopid": "244759150",
    "stopname": "Gnangara Road after Deloraine Way",
    "lat": -31.7957702,
    "lon": 115.9745392
  },
  {
    "stopid": "244759159",
    "stopname": "Gnangara Road after West Swan Road",
    "lat": -31.7957259,
    "lon": 115.9951781
  },
  {
    "stopid": "244759169",
    "stopname": "Bus stop",
    "lat": -31.7884719,
    "lon": 116.0057565
  },
  {
    "stopid": "244782856",
    "stopname": "Bus stop",
    "lat": -31.7838154,
    "lon": 116.0225424
  },
  {
    "stopid": "244782867",
    "stopname": "Bus stop",
    "lat": -31.7870988,
    "lon": 116.0232745
  },
  {
    "stopid": "244782878",
    "stopname": "Bus stop",
    "lat": -31.7881484,
    "lon": 116.0228086
  },
  {
    "stopid": "244782930",
    "stopname": "Bus stop",
    "lat": -31.7940614,
    "lon": 116.0215634
  },
  {
    "stopid": "244782941",
    "stopname": "Bus stop",
    "lat": -31.7978102,
    "lon": 116.0208297
  },
  {
    "stopid": "244782965",
    "stopname": "Bus stop",
    "lat": -31.802192,
    "lon": 116.0200473
  },
  {
    "stopid": "244782976",
    "stopname": "Bus stop",
    "lat": -31.8025393,
    "lon": 116.0203373
  },
  {
    "stopid": "244782992",
    "stopname": "Bus stop",
    "lat": -31.8040139,
    "lon": 116.019713
  },
  {
    "stopid": "244783004",
    "stopname": "Bus stop",
    "lat": -31.8064651,
    "lon": 116.0194646
  },
  {
    "stopid": "244783016",
    "stopname": "Bus stop",
    "lat": -31.8068886,
    "lon": 116.0197104
  },
  {
    "stopid": "244783028",
    "stopname": "Bus stop",
    "lat": -31.8124916,
    "lon": 116.0186635
  },
  {
    "stopid": "244783039",
    "stopname": "Bus stop",
    "lat": -31.8116317,
    "lon": 116.0190436
  },
  {
    "stopid": "244783051",
    "stopname": "Bus stop",
    "lat": -31.817141,
    "lon": 116.0182775
  },
  {
    "stopid": "244783063",
    "stopname": "Bus stop",
    "lat": -31.8200688,
    "lon": 116.0178238
  },
  {
    "stopid": "244783075",
    "stopname": "Bus stop",
    "lat": -31.8193129,
    "lon": 116.0176994
  },
  {
    "stopid": "244783087",
    "stopname": "Bus stop",
    "lat": -31.8245803,
    "lon": 116.0172587
  },
  {
    "stopid": "244783098",
    "stopname": "Bus stop",
    "lat": -31.8244592,
    "lon": 116.0169838
  },
  {
    "stopid": "244783110",
    "stopname": "Bus stop",
    "lat": -31.8284918,
    "lon": 116.016908
  },
  {
    "stopid": "244783121",
    "stopname": "Bus stop",
    "lat": -31.8288417,
    "lon": 116.0164435
  },
  {
    "stopid": "244783132",
    "stopname": "Bus stop",
    "lat": -31.8301106,
    "lon": 116.0166526
  },
  {
    "stopid": "244783144",
    "stopname": "Bus stop",
    "lat": -31.8299869,
    "lon": 116.0163969
  },
  {
    "stopid": "244783156",
    "stopname": "Bus stop",
    "lat": -31.8348554,
    "lon": 116.016244
  },
  {
    "stopid": "244783168",
    "stopname": "Bus stop",
    "lat": -31.8366987,
    "lon": 116.0158315
  },
  {
    "stopid": "244783180",
    "stopname": "Bus stop",
    "lat": -31.8403017,
    "lon": 116.0158078
  },
  {
    "stopid": "244783232",
    "stopname": "Bus stop",
    "lat": -31.8416617,
    "lon": 116.0152992
  },
  {
    "stopid": "244783243",
    "stopname": "Bus stop",
    "lat": -31.8443894,
    "lon": 116.0152121
  },
  {
    "stopid": "244783254",
    "stopname": "Bus stop",
    "lat": -31.8444097,
    "lon": 116.0154696
  },
  {
    "stopid": "244783265",
    "stopname": "Bus stop",
    "lat": -31.8476027,
    "lon": 116.0151974
  },
  {
    "stopid": "244783276",
    "stopname": "Bus stop",
    "lat": -31.8479793,
    "lon": 116.0149208
  },
  {
    "stopid": "244783284",
    "stopname": "Bus stop",
    "lat": -31.8500389,
    "lon": 116.014744
  },
  {
    "stopid": "244783305",
    "stopname": "Bus stop",
    "lat": -31.8553368,
    "lon": 116.0143062
  },
  {
    "stopid": "244783316",
    "stopname": "Bus stop",
    "lat": -31.8571423,
    "lon": 116.0144011
  },
  {
    "stopid": "244783326",
    "stopname": "Bus stop",
    "lat": -31.858964,
    "lon": 116.0139378
  },
  {
    "stopid": "244783336",
    "stopname": "Bus stop",
    "lat": -31.8597853,
    "lon": 116.0143285
  },
  {
    "stopid": "244783347",
    "stopname": "Great Northern Highway after Roe Highway",
    "lat": -31.8657909,
    "lon": 116.0143565
  },
  {
    "stopid": "271364814",
    "stopname": "Barridale Dr After Ardrossan Loop",
    "lat": -31.8033116,
    "lon": 115.7982623
  },
  {
    "stopid": "301692988",
    "stopname": "Edmund St Before Watkins St",
    "lat": -32.059235,
    "lon": 115.7615115
  },
  {
    "stopid": "301693109",
    "stopname": "Edmund St After Watkins St",
    "lat": -32.0594769,
    "lon": 115.7614363
  },
  {
    "stopid": "301696090",
    "stopname": "South St after Lilly St",
    "lat": -32.0635044,
    "lon": 115.7560506
  },
  {
    "stopid": "416897579",
    "stopname": "Wray Av Before Solomon St",
    "lat": -32.0625695,
    "lon": 115.7587695
  },
  {
    "stopid": "416897813",
    "stopname": "Hampton Rd After Wray Av",
    "lat": -32.0613811,
    "lon": 115.7567335
  },
  {
    "stopid": "423692621",
    "stopname": "Poynter Dr Before Kelso Ct",
    "lat": -31.8366184,
    "lon": 115.7754192
  },
  {
    "stopid": "442425606",
    "stopname": "Poynter Dr After Glenbar Rd",
    "lat": -31.8439929,
    "lon": 115.7767858
  },
  {
    "stopid": "443230987",
    "stopname": "Davallia Rd After Juniper Wy",
    "lat": -31.8421618,
    "lon": 115.7856445
  },
  {
    "stopid": "443230988",
    "stopname": "Poynter Dr After Glenbar Rd",
    "lat": -31.8419634,
    "lon": 115.7757383
  },
  {
    "stopid": "443230989",
    "stopname": "Poynter Dr Before Glenbar Rd",
    "lat": -31.8440696,
    "lon": 115.7767038
  },
  {
    "stopid": "443230991",
    "stopname": "Poynter Dr Before Megiddo Wy",
    "lat": -31.8415341,
    "lon": 115.7758823
  },
  {
    "stopid": "443230992",
    "stopname": "Beach Rd After Davallia Rd",
    "lat": -31.845729,
    "lon": 115.7865982
  },
  {
    "stopid": "443230993",
    "stopname": "Beach Rd After Sequoia Rd",
    "lat": -31.8457116,
    "lon": 115.7830324
  },
  {
    "stopid": "443230994",
    "stopname": "Beach Rd After Poynter Dr",
    "lat": -31.8457063,
    "lon": 115.7790405
  },
  {
    "stopid": "443230995",
    "stopname": "Beach Rd After Alvaston Dr",
    "lat": -31.8460247,
    "lon": 115.779188
  },
  {
    "stopid": "443230996",
    "stopname": "Beach Rd After Okely Rd",
    "lat": -31.846031,
    "lon": 115.7823774
  },
  {
    "stopid": "443230997",
    "stopname": "Beach Rd Before Okely Rd",
    "lat": -31.84605,
    "lon": 115.786666
  },
  {
    "stopid": "443230998",
    "stopname": "Beach Rd After Duffy Rd",
    "lat": -31.8460681,
    "lon": 115.7944758
  },
  {
    "stopid": "452516826",
    "stopname": "Warwick Rd After Davallia Rd",
    "lat": -31.8366179,
    "lon": 115.7847391
  },
  {
    "stopid": "452516827",
    "stopname": "Warwick Rd After Glengarry Dr",
    "lat": -31.8358869,
    "lon": 115.7814614
  },
  {
    "stopid": "452516828",
    "stopname": "Warwick Rd After Dava St",
    "lat": -31.8352964,
    "lon": 115.778526
  },
  {
    "stopid": "452516829",
    "stopname": "Warwick Rd After Lilburne Rd",
    "lat": -31.8349536,
    "lon": 115.7785307
  },
  {
    "stopid": "452516830",
    "stopname": "Warwick Rd Before Glengarry Dr",
    "lat": -31.8353467,
    "lon": 115.780605
  },
  {
    "stopid": "452516831",
    "stopname": "Warwick Rd Glengarry Shopping Centre",
    "lat": -31.8361282,
    "lon": 115.7840957
  },
  {
    "stopid": "452516832",
    "stopname": "Lilburne Rd Before Lennoxtown Rd",
    "lat": -31.8331783,
    "lon": 115.7760684
  },
  {
    "stopid": "452516834",
    "stopname": "Lilburne Rd Before Pyrus St",
    "lat": -31.8322412,
    "lon": 115.7754421
  },
  {
    "stopid": "452516835",
    "stopname": "Glengarry Dr After Culloden Rd",
    "lat": -31.8344862,
    "lon": 115.7826436
  },
  {
    "stopid": "452516836",
    "stopname": "Glengarry Dr After Portree Wy",
    "lat": -31.8338809,
    "lon": 115.7824288
  },
  {
    "stopid": "452516842",
    "stopname": "Poynter Dr After Griffell Wy",
    "lat": -31.8388269,
    "lon": 115.7750316
  },
  {
    "stopid": "452516843",
    "stopname": "Poynter Dr Before Kelso Ct",
    "lat": -31.8368946,
    "lon": 115.7753813
  },
  {
    "stopid": "452516844",
    "stopname": "Arnisdale Rd Before Merrick Wy",
    "lat": -31.8347584,
    "lon": 115.7863703
  },
  {
    "stopid": "452516845",
    "stopname": "Bus stop",
    "lat": -31.8348577,
    "lon": 115.7850522
  },
  {
    "stopid": "452516847",
    "stopname": "Bus stop",
    "lat": -31.8362296,
    "lon": 115.7776764
  },
  {
    "stopid": "454446006",
    "stopname": "Dinroy St After Arnisdale Rd",
    "lat": -31.8351357,
    "lon": 115.7879799
  },
  {
    "stopid": "454446014",
    "stopname": "Bus stop",
    "lat": -31.8367315,
    "lon": 115.7891274
  },
  {
    "stopid": "454446017",
    "stopname": "Timor St Before Warwick Rd",
    "lat": -31.8369978,
    "lon": 115.7891439
  },
  {
    "stopid": "454446029",
    "stopname": "Davallia Rd After Warwick Rd",
    "lat": -31.8378111,
    "lon": 115.7868645
  },
  {
    "stopid": "454446055",
    "stopname": "Karuah Wy After Coolibah Dr",
    "lat": -31.8215456,
    "lon": 115.7931333
  },
  {
    "stopid": "454446060",
    "stopname": "Karuah Wy After Hepburn Av",
    "lat": -31.8218633,
    "lon": 115.793269
  },
  {
    "stopid": "454446070",
    "stopname": "Timberlane Dr After Gascoyne Av",
    "lat": -31.7851413,
    "lon": 115.7956374
  },
  {
    "stopid": "455813695",
    "stopname": "11928",
    "lat": -31.9983737,
    "lon": 115.8665742
  },
  {
    "stopid": "458635111",
    "stopname": "Beach Rd After Osmaston Rd",
    "lat": -31.8452275,
    "lon": 115.7695174
  },
  {
    "stopid": "458635112",
    "stopname": "Beach Rd After Chessell Dr",
    "lat": -31.8455994,
    "lon": 115.7660595
  },
  {
    "stopid": "458635114",
    "stopname": "Beach Rd After Marmion Av",
    "lat": -31.845297,
    "lon": 115.7659431
  },
  {
    "stopid": "458635115",
    "stopname": "Beach Rd After Chessell Dr",
    "lat": -31.8449034,
    "lon": 115.7694442
  },
  {
    "stopid": "458635116",
    "stopname": "Marmion Av After Parnell Av",
    "lat": -31.8421965,
    "lon": 115.7626184
  },
  {
    "stopid": "458635117",
    "stopname": "Marmion Av Before Freeman Wy",
    "lat": -31.8381173,
    "lon": 115.7636722
  },
  {
    "stopid": "458635118",
    "stopname": "Marmion Av After Warwick Rd",
    "lat": -31.8376863,
    "lon": 115.7641014
  },
  {
    "stopid": "458635119",
    "stopname": "Marmion Av After Burragah Wy",
    "lat": -31.842132,
    "lon": 115.7629411
  },
  {
    "stopid": "458635120",
    "stopname": "Warwick Rd After Chessell Dr",
    "lat": -31.8350369,
    "lon": 115.7700008
  },
  {
    "stopid": "458635121",
    "stopname": "Warwick Rd After Ron Chamberlain Dr",
    "lat": -31.8349995,
    "lon": 115.7661233
  },
  {
    "stopid": "458635122",
    "stopname": "Warwick Rd After Marmion Av",
    "lat": -31.8347333,
    "lon": 115.7664911
  },
  {
    "stopid": "458635123",
    "stopname": "Warwick Rd Before Roche Rd",
    "lat": -31.8347323,
    "lon": 115.7694414
  },
  {
    "stopid": "458635124",
    "stopname": "Poynter Dr After Chessell Dr",
    "lat": -31.8358042,
    "lon": 115.7737628
  },
  {
    "stopid": "458635126",
    "stopname": "Poynter Dr After Kincraig Wy",
    "lat": -31.8359011,
    "lon": 115.7731327
  },
  {
    "stopid": "458769822",
    "stopname": "Davallia Rd Before Warwick Rd",
    "lat": -31.8375944,
    "lon": 115.7866973
  },
  {
    "stopid": "458769823",
    "stopname": "Davallia Rd Before Nicholli St",
    "lat": -31.840084,
    "lon": 115.785905
  },
  {
    "stopid": "458769824",
    "stopname": "Davallia Rd Before Granadilla St",
    "lat": -31.8427702,
    "lon": 115.7853112
  },
  {
    "stopid": "458769825",
    "stopname": "Davallia Rd After Beach Rd",
    "lat": -31.845338,
    "lon": 115.7852002
  },
  {
    "stopid": "458769826",
    "stopname": "Beach Rd After Sycamore Dr",
    "lat": -31.8457536,
    "lon": 115.792892
  },
  {
    "stopid": "458769827",
    "stopname": "Beach Rd After Springvale Dr",
    "lat": -31.8457839,
    "lon": 115.8022297
  },
  {
    "stopid": "458769829",
    "stopname": "Beach Rd Before Dorchester Av",
    "lat": -31.845729,
    "lon": 115.8062265
  },
  {
    "stopid": "458769830",
    "stopname": "Dugdale St Before Dorchester Av",
    "lat": -31.8428709,
    "lon": 115.8078022
  },
  {
    "stopid": "458769834",
    "stopname": "Dugdale St Before Glenmere Rd",
    "lat": -31.8423179,
    "lon": 115.8081696
  },
  {
    "stopid": "458769835",
    "stopname": "Ellersdale Av After Dugdale St",
    "lat": -31.8409384,
    "lon": 115.8085733
  },
  {
    "stopid": "458769836",
    "stopname": "Ellersdale Av Before Dugdale St",
    "lat": -31.8407058,
    "lon": 115.8084285
  },
  {
    "stopid": "458769860",
    "stopname": "Cockman Rd After Elmhurst Wy",
    "lat": -31.8229383,
    "lon": 115.8152961
  },
  {
    "stopid": "458769879",
    "stopname": "Allenswood Rd After Hepburn Av",
    "lat": -31.8223988,
    "lon": 115.8044136
  },
  {
    "stopid": "458769880",
    "stopname": "Allenswood Rd After Crowea St",
    "lat": -31.8222971,
    "lon": 115.8040029
  },
  {
    "stopid": "458769888",
    "stopname": "Bus stop",
    "lat": -31.8256619,
    "lon": 115.8000274
  },
  {
    "stopid": "458769889",
    "stopname": "Bus stop",
    "lat": -31.8254873,
    "lon": 115.7998296
  },
  {
    "stopid": "458769891",
    "stopname": "Bus stop",
    "lat": -31.8233549,
    "lon": 115.7969598
  },
  {
    "stopid": "458769892",
    "stopname": "Bus stop",
    "lat": -31.8234461,
    "lon": 115.7973057
  },
  {
    "stopid": "458769893",
    "stopname": "Bus stop",
    "lat": -31.8224763,
    "lon": 115.7946678
  },
  {
    "stopid": "458769894",
    "stopname": "Bus stop",
    "lat": -31.8223679,
    "lon": 115.7945131
  },
  {
    "stopid": "458769896",
    "stopname": "Coolibah Dr After Wahroonga Wy",
    "lat": -31.8230348,
    "lon": 115.7910319
  },
  {
    "stopid": "458769897",
    "stopname": "Coolibah Dr After Garnkirk Rd",
    "lat": -31.8232256,
    "lon": 115.7906415
  },
  {
    "stopid": "458769901",
    "stopname": "Coolibah Dr After Garnkirk Rd",
    "lat": -31.8255103,
    "lon": 115.7895962
  },
  {
    "stopid": "458769902",
    "stopname": "Coolibah Dr After Kilcairn Pl",
    "lat": -31.8257667,
    "lon": 115.7894332
  },
  {
    "stopid": "458769914",
    "stopname": "Kingsley Dr After Hepburn Av",
    "lat": -31.8176383,
    "lon": 115.789324
  },
  {
    "stopid": "458769915",
    "stopname": "Kingsley Dr After Wimbledon Dr",
    "lat": -31.8151727,
    "lon": 115.7889505
  },
  {
    "stopid": "458769916",
    "stopname": "Kingsley Dr After Wimbledon Dr",
    "lat": -31.811507,
    "lon": 115.788818
  },
  {
    "stopid": "458769921",
    "stopname": "Kingsley Dr Kingsley Shopping Centre",
    "lat": -31.8083795,
    "lon": 115.7887999
  },
  {
    "stopid": "458769922",
    "stopname": "Kingsley Dr After Woodford Wells Wy",
    "lat": -31.8061318,
    "lon": 115.7879502
  },
  {
    "stopid": "458769923",
    "stopname": "Kingsley Dr After Whitechapel Ln",
    "lat": -31.8043698,
    "lon": 115.7871016
  },
  {
    "stopid": "458769924",
    "stopname": "Kingsley Dr After Coventry Ct",
    "lat": -31.801416,
    "lon": 115.7881333
  },
  {
    "stopid": "458769925",
    "stopname": "Kingsley Dr After Twickenham Dr",
    "lat": -31.7994871,
    "lon": 115.7889924
  },
  {
    "stopid": "458769941",
    "stopname": "Trappers Dr After Timbercrest Rise",
    "lat": -31.7948887,
    "lon": 115.7925572
  },
  {
    "stopid": "458769942",
    "stopname": "Trappers Dr After Catherine Cl",
    "lat": -31.7935076,
    "lon": 115.7900858
  },
  {
    "stopid": "458769943",
    "stopname": "Trappers Dr After Trailwood Dr",
    "lat": -31.7914063,
    "lon": 115.7875329
  },
  {
    "stopid": "458769944",
    "stopname": "Trappers Dr After Penmar Ct",
    "lat": -31.7890161,
    "lon": 115.7873152
  },
  {
    "stopid": "458769945",
    "stopname": "Trappers Dr After Birchfield Av",
    "lat": -31.7864509,
    "lon": 115.7870194
  },
  {
    "stopid": "458769946",
    "stopname": "Trappers Dr After Camarino Dr",
    "lat": -31.7841099,
    "lon": 115.7871737
  },
  {
    "stopid": "458769948",
    "stopname": "Trappers Dr After Montash Rtt",
    "lat": -31.7813154,
    "lon": 115.7872732
  },
  {
    "stopid": "458769949",
    "stopname": "Trappers Dr After Plumdale Wy",
    "lat": -31.7786017,
    "lon": 115.7884185
  },
  {
    "stopid": "458769950",
    "stopname": "Trappers Dr After Monterey Dr",
    "lat": -31.7764791,
    "lon": 115.791648
  },
  {
    "stopid": "458769951",
    "stopname": "Trappers Dr After Castlegate Wy",
    "lat": -31.7768339,
    "lon": 115.7915237
  },
  {
    "stopid": "458769952",
    "stopname": "Trappers Dr After Clere Rise",
    "lat": -31.7784487,
    "lon": 115.7888933
  },
  {
    "stopid": "458769953",
    "stopname": "Trappers Dr After Plumdale Wy",
    "lat": -31.7811093,
    "lon": 115.7873615
  },
  {
    "stopid": "458769954",
    "stopname": "Timberlane Dr After Trappers Dr",
    "lat": -31.7818942,
    "lon": 115.7882336
  },
  {
    "stopid": "458769955",
    "stopname": "Timberlane Dr After Castlegate Wy",
    "lat": -31.782012,
    "lon": 115.7914732
  },
  {
    "stopid": "458769958",
    "stopname": "Timberlane Dr After Mccubbin Bvd",
    "lat": -31.7822941,
    "lon": 115.7916963
  },
  {
    "stopid": "458769959",
    "stopname": "Timberlane Dr After Lyell Gr",
    "lat": -31.7820064,
    "lon": 115.7881688
  },
  {
    "stopid": "458769971",
    "stopname": "Trappers Dr After Plumdale Wy",
    "lat": -31.7842183,
    "lon": 115.7872625
  },
  {
    "stopid": "458769972",
    "stopname": "Trappers Dr After Birchfield Av",
    "lat": -31.7870212,
    "lon": 115.7873802
  },
  {
    "stopid": "458769973",
    "stopname": "Trappers Dr After Nadine Pl",
    "lat": -31.7888402,
    "lon": 115.7874894
  },
  {
    "stopid": "458769974",
    "stopname": "Trappers Dr After Montclair Av",
    "lat": -31.7911556,
    "lon": 115.7875605
  },
  {
    "stopid": "458769975",
    "stopname": "Trappers Dr After Chichester Dr",
    "lat": -31.7932642,
    "lon": 115.7897553
  },
  {
    "stopid": "458769976",
    "stopname": "Trappers Dr After Penny L",
    "lat": -31.795225,
    "lon": 115.7931705
  },
  {
    "stopid": "458769977",
    "stopname": "Trappers Dr After Timberlane Dr",
    "lat": -31.796742,
    "lon": 115.7950807
  },
  {
    "stopid": "458769978",
    "stopname": "Trappers Dr After Whitfords Av",
    "lat": -31.799054,
    "lon": 115.7962815
  },
  {
    "stopid": "458769979",
    "stopname": "Trappers Dr After Woodvale Dr",
    "lat": -31.7984295,
    "lon": 115.7963365
  },
  {
    "stopid": "458769982",
    "stopname": "Trappers Dr Before Timberlane Dr",
    "lat": -31.7966923,
    "lon": 115.794684
  },
  {
    "stopid": "458769983",
    "stopname": "Bus stop",
    "lat": -31.7985037,
    "lon": 115.7924767
  },
  {
    "stopid": "458769984",
    "stopname": "Kingsley Dr After Whitfords Av",
    "lat": -31.7995517,
    "lon": 115.7891233
  },
  {
    "stopid": "458769985",
    "stopname": "Kingsley Dr After Forest Hill Dr",
    "lat": -31.8013262,
    "lon": 115.7882746
  },
  {
    "stopid": "458769987",
    "stopname": "Kingsley Dr After Woodford Wells Wy",
    "lat": -31.8059096,
    "lon": 115.7879589
  },
  {
    "stopid": "458769988",
    "stopname": "Kingsley Dr Kingsley Shopping Centre",
    "lat": -31.8085681,
    "lon": 115.7889559
  },
  {
    "stopid": "458769994",
    "stopname": "Kingsley Dr After Shepherds Bush Dr",
    "lat": -31.8117005,
    "lon": 115.7889402
  },
  {
    "stopid": "458769995",
    "stopname": "Kingsley Dr After Malden Rd",
    "lat": -31.8143191,
    "lon": 115.7889516
  },
  {
    "stopid": "458769996",
    "stopname": "Kingsley Dr After Gilmore St",
    "lat": -31.8174054,
    "lon": 115.789463
  },
  {
    "stopid": "458770000",
    "stopname": "Glengarry Dr After Mapleton Pl",
    "lat": -31.8207313,
    "lon": 115.7778518
  },
  {
    "stopid": "458770002",
    "stopname": "Glengarry Dr Before Foston Dr",
    "lat": -31.824577,
    "lon": 115.7788978
  },
  {
    "stopid": "458770004",
    "stopname": "Glengarry Dr After Castlefern Wy",
    "lat": -31.8276218,
    "lon": 115.7800943
  },
  {
    "stopid": "458770006",
    "stopname": "Glengarry Dr After Doveridge Dr",
    "lat": -31.830084,
    "lon": 115.782606
  },
  {
    "stopid": "458770008",
    "stopname": "Glengarry Dr After Carlyle Cr",
    "lat": -31.8318263,
    "lon": 115.7827821
  },
  {
    "stopid": "461692419",
    "stopname": "Peel Rd Before Adams St",
    "lat": -32.0601852,
    "lon": 115.801602
  },
  {
    "stopid": "461692420",
    "stopname": "Peel Rd Before Adams St",
    "lat": -32.0602693,
    "lon": 115.8020755
  },
  {
    "stopid": "471854255",
    "stopname": "Glengarry Dr After Lennoxtown Rd",
    "lat": -31.8315823,
    "lon": 115.782546
  },
  {
    "stopid": "471854258",
    "stopname": "Glengarry Dr Before Doveridge Dr",
    "lat": -31.8299268,
    "lon": 115.7823001
  },
  {
    "stopid": "471854261",
    "stopname": "Glengarry Dr After Castlefern Wy",
    "lat": -31.827309,
    "lon": 115.7794518
  },
  {
    "stopid": "471854264",
    "stopname": "Glengarry Dr After Guron Rd",
    "lat": -31.8249102,
    "lon": 115.778807
  },
  {
    "stopid": "471854268",
    "stopname": "Glengarry Dr Before Maybug Rd",
    "lat": -31.8208042,
    "lon": 115.7777417
  },
  {
    "stopid": "471854285",
    "stopname": "Bus stop",
    "lat": -31.8250793,
    "lon": 115.8034867
  },
  {
    "stopid": "471854288",
    "stopname": "Bus stop",
    "lat": -31.825034,
    "lon": 115.803847
  },
  {
    "stopid": "471854290",
    "stopname": "Allenswood Rd After Blackall Dr",
    "lat": -31.82519,
    "lon": 115.8050675
  },
  {
    "stopid": "471854292",
    "stopname": "Bus stop",
    "lat": -31.8196087,
    "lon": 115.8060923
  },
  {
    "stopid": "471854293",
    "stopname": "Moolanda Bvd Opposite Cadogan St",
    "lat": -31.8165115,
    "lon": 115.8060549
  },
  {
    "stopid": "471854295",
    "stopname": "Moolanda Bvd After Legana Av",
    "lat": -31.8167287,
    "lon": 115.805944
  },
  {
    "stopid": "471854296",
    "stopname": "Moolanda Blvd before McDowell Cr",
    "lat": -31.8138352,
    "lon": 115.8046599
  },
  {
    "stopid": "471854297",
    "stopname": "Moolanda Bvd Before Boloka Rise",
    "lat": -31.8138632,
    "lon": 115.8048031
  },
  {
    "stopid": "471854298",
    "stopname": "Moolanda Bvd After Mcdowell Cr",
    "lat": -31.811198,
    "lon": 115.8044175
  },
  {
    "stopid": "471854299",
    "stopname": "Moolanda Bvd After Halidon St",
    "lat": -31.8111224,
    "lon": 115.8045723
  },
  {
    "stopid": "471854307",
    "stopname": "Moolanda Blvd after Alconbury Rd",
    "lat": -31.8088249,
    "lon": 115.8051954
  },
  {
    "stopid": "471854309",
    "stopname": "Moolanda Blvd after Halidon St",
    "lat": -31.8089958,
    "lon": 115.8050205
  },
  {
    "stopid": "471854312",
    "stopname": "Bus stop",
    "lat": -31.8056581,
    "lon": 115.8044008
  },
  {
    "stopid": "471854314",
    "stopname": "Bus stop",
    "lat": -31.8054823,
    "lon": 115.8043466
  },
  {
    "stopid": "471854316",
    "stopname": "Moolanda Bvd After Dollis Wy",
    "lat": -31.8036107,
    "lon": 115.8038267
  },
  {
    "stopid": "471854317",
    "stopname": "Whitfords Av After Moolanda Bvd",
    "lat": -31.8024465,
    "lon": 115.8030879
  },
  {
    "stopid": "471854318",
    "stopname": "Whitfords Av After Barridale Dr",
    "lat": -31.800688,
    "lon": 115.7986199
  },
  {
    "stopid": "471854319",
    "stopname": "Whitfords Avenue after Trappers Drive",
    "lat": -31.8001709,
    "lon": 115.7975978
  },
  {
    "stopid": "471854320",
    "stopname": "Timberlane Dr After Ormond Ct",
    "lat": -31.7906143,
    "lon": 115.7977464
  },
  {
    "stopid": "471854321",
    "stopname": "Timberlane Dr After Karri Ct",
    "lat": -31.7895785,
    "lon": 115.7981293
  },
  {
    "stopid": "471854322",
    "stopname": "Timberlane Dr After Fern Pl",
    "lat": -31.7877451,
    "lon": 115.7977444
  },
  {
    "stopid": "471854323",
    "stopname": "Timberlane Dr After Jarrah Pl",
    "lat": -31.7870442,
    "lon": 115.7973323
  },
  {
    "stopid": "471854324",
    "stopname": "Timberlane Dr After Mccubbin Bvd",
    "lat": -31.7834205,
    "lon": 115.7940172
  },
  {
    "stopid": "471854345",
    "stopname": "Kingsley Dr After Creaney Dr",
    "lat": -31.8040984,
    "lon": 115.7871925
  },
  {
    "stopid": "471854347",
    "stopname": "Coolibah Dr After Orkney Rd",
    "lat": -31.8282649,
    "lon": 115.7909673
  },
  {
    "stopid": "471854348",
    "stopname": "Coolibah Dr Before Blackbutt Dr",
    "lat": -31.8288668,
    "lon": 115.7935354
  },
  {
    "stopid": "471854349",
    "stopname": "Coolibah Dr Before Lambertia St",
    "lat": -31.8295896,
    "lon": 115.7952201
  },
  {
    "stopid": "471854350",
    "stopname": "Coolibah Dr Before Kurrajong Pl",
    "lat": -31.8299221,
    "lon": 115.7955764
  },
  {
    "stopid": "471854351",
    "stopname": "Protea St After Coolibah Dr",
    "lat": -31.8317348,
    "lon": 115.7981382
  },
  {
    "stopid": "471854352",
    "stopname": "Protea St After Boronia Ct",
    "lat": -31.8319056,
    "lon": 115.7979016
  },
  {
    "stopid": "471854353",
    "stopname": "Bus stop",
    "lat": -31.8318584,
    "lon": 115.79962
  },
  {
    "stopid": "471854354",
    "stopname": "Bus stop",
    "lat": -31.8321594,
    "lon": 115.8005922
  },
  {
    "stopid": "471854356",
    "stopname": "Bus stop",
    "lat": -31.8386834,
    "lon": 115.7908497
  },
  {
    "stopid": "497557473",
    "stopname": "Watkins St After Newbold St",
    "lat": -32.0597068,
    "lon": 115.7734586
  },
  {
    "stopid": "497557476",
    "stopname": "Watkins St After Nannine Av",
    "lat": -32.0598111,
    "lon": 115.7695599
  },
  {
    "stopid": "497557478",
    "stopname": "Watkins St After Wiluna Av",
    "lat": -32.059873,
    "lon": 115.7673047
  },
  {
    "stopid": "512414151",
    "stopname": "Oronsay Rd Before Forres Pl",
    "lat": -31.8353826,
    "lon": 115.7943915
  },
  {
    "stopid": "512414153",
    "stopname": "Bus stop",
    "lat": -31.8347731,
    "lon": 115.7932147
  },
  {
    "stopid": "512414155",
    "stopname": "Protea St After Callistemon St",
    "lat": -31.8337592,
    "lon": 115.7961969
  },
  {
    "stopid": "512414157",
    "stopname": "Protea St After Tenardi Ct",
    "lat": -31.83425,
    "lon": 115.7954923
  },
  {
    "stopid": "512414159",
    "stopname": "Tuart Rd After Warwick Rd",
    "lat": -31.8348643,
    "lon": 115.7982732
  },
  {
    "stopid": "512414161",
    "stopname": "Allenswood Rd After Merivale Wy",
    "lat": -31.832139,
    "lon": 115.8070868
  },
  {
    "stopid": "512414167",
    "stopname": "Allenswood Rd Before Merivale Wy",
    "lat": -31.829047,
    "lon": 115.8060326
  },
  {
    "stopid": "512414177",
    "stopname": "Legana Av After Moolanda Bvd",
    "lat": -31.8174722,
    "lon": 115.8068776
  },
  {
    "stopid": "512414179",
    "stopname": "Legana Av Before Illawong Wy",
    "lat": -31.8175472,
    "lon": 115.8071707
  },
  {
    "stopid": "512414180",
    "stopname": "Legana Av After Thirroul Gr",
    "lat": -31.817735,
    "lon": 115.8103134
  },
  {
    "stopid": "512414181",
    "stopname": "Legana Av After Cobradah Wy",
    "lat": -31.8179002,
    "lon": 115.8104591
  },
  {
    "stopid": "512414182",
    "stopname": "Goollelal Dr After Hepburn Av",
    "lat": -31.8189627,
    "lon": 115.811783
  },
  {
    "stopid": "512414183",
    "stopname": "Bus stop",
    "lat": -31.8190798,
    "lon": 115.8118681
  },
  {
    "stopid": "512414185",
    "stopname": "Bus stop",
    "lat": -31.8010443,
    "lon": 115.8060007
  },
  {
    "stopid": "512414187",
    "stopname": "Bus stop",
    "lat": -31.8010575,
    "lon": 115.8058876
  },
  {
    "stopid": "512414189",
    "stopname": "Bus stop",
    "lat": -31.7977223,
    "lon": 115.8043597
  },
  {
    "stopid": "512414191",
    "stopname": "Bus stop",
    "lat": -31.7977707,
    "lon": 115.8042619
  },
  {
    "stopid": "512414193",
    "stopname": "Bus stop",
    "lat": -31.7948654,
    "lon": 115.8029345
  },
  {
    "stopid": "512414195",
    "stopname": "Bus stop",
    "lat": -31.7948738,
    "lon": 115.8028339
  },
  {
    "stopid": "512414197",
    "stopname": "Althaea Wy After Timberlane Dr",
    "lat": -31.7932848,
    "lon": 115.8001138
  },
  {
    "stopid": "512414199",
    "stopname": "Woodvale Dr After Shorebird Pde",
    "lat": -31.7950606,
    "lon": 115.7997781
  },
  {
    "stopid": "512414201",
    "stopname": "Woodvale Dr After Shorebird Pde",
    "lat": -31.7958111,
    "lon": 115.7994291
  },
  {
    "stopid": "512414203",
    "stopname": "Woodvale Dr After Trappers Dr",
    "lat": -31.7972391,
    "lon": 115.7970079
  },
  {
    "stopid": "512414206",
    "stopname": "Whitfords Av after Timbercrest Rise",
    "lat": -31.8002206,
    "lon": 115.7929333
  },
  {
    "stopid": "512414209",
    "stopname": "Barridale Dr Before Whitfords Av",
    "lat": -31.8014527,
    "lon": 115.7992544
  },
  {
    "stopid": "512414211",
    "stopname": "Barridale Dr After Whitfords Av",
    "lat": -31.8016029,
    "lon": 115.7993239
  },
  {
    "stopid": "512414213",
    "stopname": "Barridale Dr After Dunoon St",
    "lat": -31.8032674,
    "lon": 115.7984168
  },
  {
    "stopid": "512414217",
    "stopname": "Barridale Dr After Harness St",
    "lat": -31.8059372,
    "lon": 115.7975264
  },
  {
    "stopid": "512414219",
    "stopname": "Barridale Dr After Halidon St",
    "lat": -31.8061486,
    "lon": 115.7974002
  },
  {
    "stopid": "512414221",
    "stopname": "Barridale Dr After Stoneykirk Loop",
    "lat": -31.8084456,
    "lon": 115.7972325
  },
  {
    "stopid": "512414223",
    "stopname": "Barridale Dr Before Stoneykirk Loop",
    "lat": -31.809038,
    "lon": 115.7970731
  },
  {
    "stopid": "512414238",
    "stopname": "Barridale Dr After Peregrine Dr",
    "lat": -31.8113187,
    "lon": 115.797118
  },
  {
    "stopid": "512414240",
    "stopname": "Barridale Dr After Dalton Cr",
    "lat": -31.8118656,
    "lon": 115.7973428
  },
  {
    "stopid": "512414245",
    "stopname": "Barridale Dr After Glenfield Rd",
    "lat": -31.8143359,
    "lon": 115.7974086
  },
  {
    "stopid": "512414248",
    "stopname": "Barridale Dr After Dalmain St",
    "lat": -31.8148099,
    "lon": 115.7972768
  },
  {
    "stopid": "512414254",
    "stopname": "Barridale Dr After Beech Rd",
    "lat": -31.8176919,
    "lon": 115.7977568
  },
  {
    "stopid": "512414256",
    "stopname": "Barridale Dr After Dalmain St",
    "lat": -31.8178616,
    "lon": 115.7980152
  },
  {
    "stopid": "512414261",
    "stopname": "Barridale Dr After Adenmore Wy",
    "lat": -31.8198119,
    "lon": 115.7992835
  },
  {
    "stopid": "512414263",
    "stopname": "Barridale Dr Before Adenmore Wy",
    "lat": -31.8199447,
    "lon": 115.7992011
  },
  {
    "stopid": "512414265",
    "stopname": "Barridale Dr After Field St",
    "lat": -31.820874,
    "lon": 115.7993957
  },
  {
    "stopid": "512414267",
    "stopname": "Barridale Dr After Hepburn Av",
    "lat": -31.8211449,
    "lon": 115.7992186
  },
  {
    "stopid": "512414269",
    "stopname": "Bus stop",
    "lat": -31.8125037,
    "lon": 115.7968435
  },
  {
    "stopid": "512414271",
    "stopname": "Bus stop",
    "lat": -31.8123375,
    "lon": 115.795876
  },
  {
    "stopid": "512414273",
    "stopname": "Bus stop",
    "lat": -31.8131243,
    "lon": 115.7904577
  },
  {
    "stopid": "512414276",
    "stopname": "Bus stop",
    "lat": -31.8131896,
    "lon": 115.7902593
  },
  {
    "stopid": "512414278",
    "stopname": "Allenswood Rd After Blackall Dr",
    "lat": -31.8243329,
    "lon": 115.8044803
  },
  {
    "stopid": "512414283",
    "stopname": "Allenswood Rd Before Blackall Dr",
    "lat": -31.8266854,
    "lon": 115.8050109
  },
  {
    "stopid": "512414289",
    "stopname": "Allenswood Rd After Leschenaultia St",
    "lat": -31.8292803,
    "lon": 115.8057124
  },
  {
    "stopid": "512414320",
    "stopname": "Allenswood Rd After Warwick Rd",
    "lat": -31.8321422,
    "lon": 115.8066984
  },
  {
    "stopid": "517461093",
    "stopname": "Woodvale Dr Before Waterview Dr",
    "lat": -31.7910232,
    "lon": 115.8019038
  },
  {
    "stopid": "517461097",
    "stopname": "Woodvale Dr After Waterview Dr",
    "lat": -31.7908187,
    "lon": 115.8018471
  },
  {
    "stopid": "517461100",
    "stopname": "Woodvale Dr Before Wanneroo Rd",
    "lat": -31.7855554,
    "lon": 115.8089845
  },
  {
    "stopid": "517461103",
    "stopname": "Wanneroo Rd Before Woodvale Dr",
    "lat": -31.7857715,
    "lon": 115.8095672
  },
  {
    "stopid": "520155500",
    "stopname": "Marmion Av After Readshaw Rd",
    "lat": -31.8260861,
    "lon": 115.7620276
  },
  {
    "stopid": "520155503",
    "stopname": "Marmion Av After Seacrest Dr",
    "lat": -31.8262369,
    "lon": 115.7616851
  },
  {
    "stopid": "520155508",
    "stopname": "Seacrest Dr Before Haynes Rd",
    "lat": -31.8272982,
    "lon": 115.756068
  },
  {
    "stopid": "520155510",
    "stopname": "Seacrest Dr After Haynes Rd",
    "lat": -31.827201,
    "lon": 115.7557364
  },
  {
    "stopid": "520155511",
    "stopname": "Padbury Cir Before Hocking Pde",
    "lat": -31.8301679,
    "lon": 115.7483687
  },
  {
    "stopid": "520155512",
    "stopname": "Hocking Pde Before Keans Av",
    "lat": -31.827898,
    "lon": 115.7483016
  },
  {
    "stopid": "520155513",
    "stopname": "Hocking Pde After Keans Av",
    "lat": -31.8280598,
    "lon": 115.7483721
  },
  {
    "stopid": "520155515",
    "stopname": "Bus stop",
    "lat": -31.8273699,
    "lon": 115.7484363
  },
  {
    "stopid": "520155518",
    "stopname": "Bus stop",
    "lat": -31.8272094,
    "lon": 115.7485001
  },
  {
    "stopid": "520155520",
    "stopname": "Bus stop",
    "lat": -31.8270817,
    "lon": 115.7485402
  },
  {
    "stopid": "520155523",
    "stopname": "Bus stop",
    "lat": -31.8269462,
    "lon": 115.7485947
  },
  {
    "stopid": "520155526",
    "stopname": "Hocking Pde Sacred Heart College Stand 1",
    "lat": -31.8268242,
    "lon": 115.7486348
  },
  {
    "stopid": "520155529",
    "stopname": "St Helier Dr After Anaconda Pl",
    "lat": -31.8251768,
    "lon": 115.7486548
  },
  {
    "stopid": "520155532",
    "stopname": "St Helier Dr After Anaconda Pl",
    "lat": -31.8250399,
    "lon": 115.7473074
  },
  {
    "stopid": "520155573",
    "stopname": "Bus stop",
    "lat": -31.7273411,
    "lon": 115.7341282
  },
  {
    "stopid": "520155575",
    "stopname": "Burns Beach Rd After Connolly Dr",
    "lat": -31.7238763,
    "lon": 115.744117
  },
  {
    "stopid": "520155578",
    "stopname": "Burns Beach Rd After Mitchell Fwy",
    "lat": -31.7230918,
    "lon": 115.7476132
  },
  {
    "stopid": "526676661",
    "stopname": "Mccombe Av After Mckenzie Rd",
    "lat": -32.0711446,
    "lon": 115.8008092
  },
  {
    "stopid": "526676664",
    "stopname": "South St After McCombe Av",
    "lat": -32.0654208,
    "lon": 115.8003324
  },
  {
    "stopid": "526676665",
    "stopname": "South St After Ladner St",
    "lat": -32.0652874,
    "lon": 115.8010447
  },
  {
    "stopid": "527084820",
    "stopname": "Marmion Av Before Readshaw Rd",
    "lat": -31.8239773,
    "lon": 115.7614798
  },
  {
    "stopid": "527084823",
    "stopname": "Marmion Av After Gilbert Rd",
    "lat": -31.8210554,
    "lon": 115.7612106
  },
  {
    "stopid": "527084829",
    "stopname": "Marmion Av After Hepburn Av",
    "lat": -31.8174958,
    "lon": 115.7608912
  },
  {
    "stopid": "527084833",
    "stopname": "Bus stop",
    "lat": -31.8147615,
    "lon": 115.7597595
  },
  {
    "stopid": "527084838",
    "stopname": "Bus stop",
    "lat": -31.8109542,
    "lon": 115.7563869
  },
  {
    "stopid": "527084841",
    "stopname": "Bus stop",
    "lat": -31.8042806,
    "lon": 115.756357
  },
  {
    "stopid": "527084842",
    "stopname": "Bus stop",
    "lat": -31.8018609,
    "lon": 115.7554649
  },
  {
    "stopid": "527084846",
    "stopname": "Marmion Av After Whitfords Av",
    "lat": -31.7977766,
    "lon": 115.7541331
  },
  {
    "stopid": "527084852",
    "stopname": "Marmion Av After Banks Av",
    "lat": -31.7976105,
    "lon": 115.7537389
  },
  {
    "stopid": "527084855",
    "stopname": "Whitford City Shopping Centre",
    "lat": -31.7954239,
    "lon": 115.7502633
  },
  {
    "stopid": "527084860",
    "stopname": "Whitfords Av Before Dampier Av",
    "lat": -31.7954384,
    "lon": 115.7500063
  },
  {
    "stopid": "527084864",
    "stopname": "Whitfords Av After Endeavour Rd",
    "lat": -31.7964282,
    "lon": 115.7442263
  },
  {
    "stopid": "527084868",
    "stopname": "Whitfords Av Before Cumberland Dr",
    "lat": -31.7976648,
    "lon": 115.7392023
  },
  {
    "stopid": "527084950",
    "stopname": "Whitfords Av After Castlecrag Dr",
    "lat": -31.7990827,
    "lon": 115.7354902
  },
  {
    "stopid": "527084954",
    "stopname": "Whitfords Av After Northshore Dr",
    "lat": -31.7989899,
    "lon": 115.7345317
  },
  {
    "stopid": "527085012",
    "stopname": "Northshore Dr Before Mullaloo Dr",
    "lat": -31.7882524,
    "lon": 115.7358385
  },
  {
    "stopid": "527086271",
    "stopname": "Bus stop",
    "lat": -31.7273651,
    "lon": 115.7333215
  },
  {
    "stopid": "531750900",
    "stopname": "Bus stop",
    "lat": -31.8140909,
    "lon": 115.7368013
  },
  {
    "stopid": "531750997",
    "stopname": "Cook Av Before St Marks Dr",
    "lat": -31.8018195,
    "lon": 115.7435414
  },
  {
    "stopid": "531751002",
    "stopname": "Cook Av After St Marks Dr",
    "lat": -31.8017148,
    "lon": 115.7435572
  },
  {
    "stopid": "531751005",
    "stopname": "Cook Av After Cumberland Dr",
    "lat": -31.8026008,
    "lon": 115.7404837
  },
  {
    "stopid": "531751009",
    "stopname": "Cook Av After Heatherton Mews",
    "lat": -31.8024799,
    "lon": 115.7405006
  },
  {
    "stopid": "534263966",
    "stopname": "Whitfords Av opp Pinnaroo Cemetery",
    "lat": -31.7975507,
    "lon": 115.7776536
  },
  {
    "stopid": "534263967",
    "stopname": "Whitfords Av After Gibson Av",
    "lat": -31.795896,
    "lon": 115.7745338
  },
  {
    "stopid": "534263968",
    "stopname": "Whitfords Av After Electra St",
    "lat": -31.7940319,
    "lon": 115.7709186
  },
  {
    "stopid": "534263969",
    "stopname": "Whitfords Av After Eddystone Av",
    "lat": -31.7937201,
    "lon": 115.7672109
  },
  {
    "stopid": "534263970",
    "stopname": "Eddystone Av Before Whitfords Av",
    "lat": -31.793092,
    "lon": 115.7650683
  },
  {
    "stopid": "534263971",
    "stopname": "Eddystone Av After Eagle Av",
    "lat": -31.7918662,
    "lon": 115.7650116
  },
  {
    "stopid": "534264001",
    "stopname": "Camberwarra Dr After Beltana Rd",
    "lat": -31.7890773,
    "lon": 115.758405
  },
  {
    "stopid": "534264002",
    "stopname": "Coral St After Marmion Av",
    "lat": -31.7902813,
    "lon": 115.756695
  },
  {
    "stopid": "534264004",
    "stopname": "Coral St After Camberwarra Dr",
    "lat": -31.7903046,
    "lon": 115.7564473
  },
  {
    "stopid": "534264005",
    "stopname": "Marmion Av After Coral St",
    "lat": -31.7918336,
    "lon": 115.7547663
  },
  {
    "stopid": "534264008",
    "stopname": "Marmion Av After Cygnet St",
    "lat": -31.7916962,
    "lon": 115.7544589
  },
  {
    "stopid": "534264009",
    "stopname": "Bridgewater Dr After Cygnet St",
    "lat": -31.7922901,
    "lon": 115.7527803
  },
  {
    "stopid": "534264010",
    "stopname": "Bridgewater Dr After Clevedon Pl",
    "lat": -31.7936002,
    "lon": 115.7504308
  },
  {
    "stopid": "534264013",
    "stopname": "Endeavour Rd After St Marks Dr",
    "lat": -31.8004954,
    "lon": 115.7456791
  },
  {
    "stopid": "534264014",
    "stopname": "Endeavour Rd Before St Marks Dr",
    "lat": -31.8006584,
    "lon": 115.7455623
  },
  {
    "stopid": "540207861",
    "stopname": "Gibson Av Before Barclay Av",
    "lat": -31.8089188,
    "lon": 115.7701069
  },
  {
    "stopid": "540207863",
    "stopname": "Gibson Av After Barclay Av",
    "lat": -31.8089495,
    "lon": 115.7699353
  },
  {
    "stopid": "540207872",
    "stopname": "Bus stop",
    "lat": -31.8023157,
    "lon": 115.7675345
  },
  {
    "stopid": "540207875",
    "stopname": "Giles Av Before Macgregor Dr",
    "lat": -31.8072361,
    "lon": 115.7638137
  },
  {
    "stopid": "540207888",
    "stopname": "Forrest Rd Before Rowlands Ct",
    "lat": -31.8006494,
    "lon": 115.7632842
  },
  {
    "stopid": "540207889",
    "stopname": "Forrest Rd After Macdonald Av",
    "lat": -31.801054,
    "lon": 115.7641735
  },
  {
    "stopid": "540207900",
    "stopname": "Alexander Rd After Caley Rd",
    "lat": -31.7990472,
    "lon": 115.7626362
  },
  {
    "stopid": "540207901",
    "stopname": "Alexander Rd Before Caley Rd",
    "lat": -31.7986825,
    "lon": 115.7624515
  },
  {
    "stopid": "540207902",
    "stopname": "Alexander Rd After Whitfords Av",
    "lat": -31.7964643,
    "lon": 115.7619183
  },
  {
    "stopid": "540207903",
    "stopname": "Alexander Rd After Gosse Rd",
    "lat": -31.7965405,
    "lon": 115.7618339
  },
  {
    "stopid": "540207904",
    "stopname": "Whitfords Av After Alexander Rd",
    "lat": -31.796272,
    "lon": 115.7603032
  },
  {
    "stopid": "540207905",
    "stopname": "Whitfords Av Before Marmion Av",
    "lat": -31.7965665,
    "lon": 115.756765
  },
  {
    "stopid": "540207906",
    "stopname": "Whitfords Av After Marmion Av",
    "lat": -31.7959966,
    "lon": 115.7558973
  },
  {
    "stopid": "540207907",
    "stopname": "Marmion Av After Cygnet St",
    "lat": -31.7939942,
    "lon": 115.7543636
  },
  {
    "stopid": "540207910",
    "stopname": "Bridgewater Dr After Cygnet St",
    "lat": -31.7912204,
    "lon": 115.7529624
  },
  {
    "stopid": "540207914",
    "stopname": "Bridgewater Dr Before Adalia St",
    "lat": -31.7903295,
    "lon": 115.7535116
  },
  {
    "stopid": "540207915",
    "stopname": "Bridgewater Dr After Adalia St",
    "lat": -31.7887798,
    "lon": 115.7543816
  },
  {
    "stopid": "540207954",
    "stopname": "Bridgewater Dr After Cambria St",
    "lat": -31.7861862,
    "lon": 115.7544515
  },
  {
    "stopid": "540207955",
    "stopname": "Bridgewater Dr After Cambria St",
    "lat": -31.7856322,
    "lon": 115.753714
  },
  {
    "stopid": "540207972",
    "stopname": "Centaur St After Bridgewater Dr",
    "lat": -31.7842474,
    "lon": 115.7503719
  },
  {
    "stopid": "540207973",
    "stopname": "Centaur St Before Bridgewater Dr",
    "lat": -31.7842117,
    "lon": 115.7504889
  },
  {
    "stopid": "540207990",
    "stopname": "Dampier Av After Mullaloo Dr",
    "lat": -31.7862079,
    "lon": 115.7444381
  },
  {
    "stopid": "540207991",
    "stopname": "Dampier Av St Ives Estate",
    "lat": -31.7863411,
    "lon": 115.7441501
  },
  {
    "stopid": "540208020",
    "stopname": "Dampier Av After Mullaloo Dr",
    "lat": -31.7832974,
    "lon": 115.744369
  },
  {
    "stopid": "540208021",
    "stopname": "Dampier Av Before Mullaloo Dr",
    "lat": -31.7833825,
    "lon": 115.7445129
  },
  {
    "stopid": "540208033",
    "stopname": "Dampier Av Before Aristride Av",
    "lat": -31.7886558,
    "lon": 115.7439899
  },
  {
    "stopid": "540208034",
    "stopname": "Dampier Av After Aristride Av",
    "lat": -31.7887179,
    "lon": 115.7442425
  },
  {
    "stopid": "540208061",
    "stopname": "Northshore Dr After Mullaloo Dr",
    "lat": -31.7883197,
    "lon": 115.7359883
  },
  {
    "stopid": "540208305",
    "stopname": "Dampier Av After Juno Ct",
    "lat": -31.7915134,
    "lon": 115.7453286
  },
  {
    "stopid": "540208306",
    "stopname": "Dampier Av After Afric Wy",
    "lat": -31.7913236,
    "lon": 115.745372
  },
  {
    "stopid": "540208324",
    "stopname": "Dampier Av After Byron Ct",
    "lat": -31.7937216,
    "lon": 115.7466692
  },
  {
    "stopid": "540208325",
    "stopname": "Dampier Av Before Byron Ct",
    "lat": -31.7937416,
    "lon": 115.7468363
  },
  {
    "stopid": "540208326",
    "stopname": "Whitfords Av - Whitford City Shop Ctr",
    "lat": -31.7952228,
    "lon": 115.7496623
  },
  {
    "stopid": "546390169",
    "stopname": "Ocean Reef Rd After Marmion Av",
    "lat": -31.7705391,
    "lon": 115.7505637
  },
  {
    "stopid": "546390174",
    "stopname": "Ocean Reef Rd Before Marmion Av",
    "lat": -31.7703987,
    "lon": 115.750125
  },
  {
    "stopid": "546390210",
    "stopname": "Marmion Av After Gunter Gr",
    "lat": -31.7773245,
    "lon": 115.7542546
  },
  {
    "stopid": "546390234",
    "stopname": "Mullaloo Dr After Catenary Ct",
    "lat": -31.7799609,
    "lon": 115.7530934
  },
  {
    "stopid": "546390238",
    "stopname": "Mullaloo Dr After Marmion Av",
    "lat": -31.7799682,
    "lon": 115.753671
  },
  {
    "stopid": "546390340",
    "stopname": "Ocean Reef Rd After Meridian Dr",
    "lat": -31.7712787,
    "lon": 115.7472013
  },
  {
    "stopid": "546390350",
    "stopname": "Dampier Av After West View Bvd",
    "lat": -31.7735533,
    "lon": 115.7422716
  },
  {
    "stopid": "546390352",
    "stopname": "Dampier Av After Ocean Reef Rd",
    "lat": -31.7727864,
    "lon": 115.7422205
  },
  {
    "stopid": "546390360",
    "stopname": "Dampier Av After West View Bvd",
    "lat": -31.7754156,
    "lon": 115.7427963
  },
  {
    "stopid": "546390363",
    "stopname": "Dampier Av Before West View Bvd",
    "lat": -31.7753136,
    "lon": 115.7426447
  },
  {
    "stopid": "546390375",
    "stopname": "Dampier Av Before Karalundie Wy",
    "lat": -31.781872,
    "lon": 115.7440592
  },
  {
    "stopid": "546390382",
    "stopname": "Dampier Av Before Waltham St",
    "lat": -31.7787314,
    "lon": 115.7433852
  },
  {
    "stopid": "546390386",
    "stopname": "Dampier Av After Scaphella Av",
    "lat": -31.7793918,
    "lon": 115.7436451
  },
  {
    "stopid": "546390446",
    "stopname": "Mullaloo Dr Before Koorana",
    "lat": -31.7815531,
    "lon": 115.7506219
  },
  {
    "stopid": "546390448",
    "stopname": "Mullaloo Dr After Koorana Rd",
    "lat": -31.7814933,
    "lon": 115.7507979
  },
  {
    "stopid": "546390599",
    "stopname": "Whitfords Av After Castlecrag Dr",
    "lat": -31.797477,
    "lon": 115.739023
  },
  {
    "stopid": "546390603",
    "stopname": "Whitfords Av After Belrose Ent",
    "lat": -31.7961613,
    "lon": 115.7436783
  },
  {
    "stopid": "546390772",
    "stopname": "Bridgewater Dr After Alicia St",
    "lat": -31.7930836,
    "lon": 115.7483689
  },
  {
    "stopid": "546390776",
    "stopname": "Bridgewater Dr Before Alicia St",
    "lat": -31.7931748,
    "lon": 115.7482575
  },
  {
    "stopid": "546390779",
    "stopname": "Bridgewater Dr After Oleander Wy",
    "lat": -31.793385,
    "lon": 115.7510071
  },
  {
    "stopid": "546390845",
    "stopname": "Camberwarra Dr After Coral St",
    "lat": -31.7902006,
    "lon": 115.7577165
  },
  {
    "stopid": "546390848",
    "stopname": "Camberwarra Dr Before Arawa Pl",
    "lat": -31.786629,
    "lon": 115.7586654
  },
  {
    "stopid": "546390850",
    "stopname": "Camberwarra Dr After Albion St",
    "lat": -31.7867723,
    "lon": 115.7585482
  },
  {
    "stopid": "546390861",
    "stopname": "Camberwarra Dr After Barradine Wy",
    "lat": -31.7839338,
    "lon": 115.7591224
  },
  {
    "stopid": "546390863",
    "stopname": "Camberwarra Dr After Barwon Rd",
    "lat": -31.7836576,
    "lon": 115.7598407
  },
  {
    "stopid": "546390910",
    "stopname": "Forrest Rd Before Macdonald Av",
    "lat": -31.8024614,
    "lon": 115.7661318
  },
  {
    "stopid": "546390913",
    "stopname": "Forrest Rd Before Macdonald Av",
    "lat": -31.8030568,
    "lon": 115.7664565
  },
  {
    "stopid": "553025071",
    "stopname": "Belmont Av After Keane St",
    "lat": -31.9707338,
    "lon": 115.9393247
  },
  {
    "stopid": "556653420",
    "stopname": "Lilburne Rd After Drummond Cr",
    "lat": -31.831037,
    "lon": 115.774706
  },
  {
    "stopid": "556653424",
    "stopname": "Lilburne Rd Before Marri Rd",
    "lat": -31.8303345,
    "lon": 115.7740515
  },
  {
    "stopid": "556653427",
    "stopname": "Lilburne Rd Before Ayton Wy",
    "lat": -31.8281365,
    "lon": 115.7725036
  },
  {
    "stopid": "556653429",
    "stopname": "Lilburne Rd After Ayton Wy",
    "lat": -31.8272959,
    "lon": 115.7722786
  },
  {
    "stopid": "556653431",
    "stopname": "Lilburne Rd After Wanbrow Wy",
    "lat": -31.8247157,
    "lon": 115.7711084
  },
  {
    "stopid": "556653432",
    "stopname": "Lilburne Rd After Edna Wy",
    "lat": -31.8244597,
    "lon": 115.7711465
  },
  {
    "stopid": "556653435",
    "stopname": "Bus stop",
    "lat": -31.8228581,
    "lon": 115.7694384
  },
  {
    "stopid": "556653437",
    "stopname": "Bus stop",
    "lat": -31.8235319,
    "lon": 115.7668159
  },
  {
    "stopid": "556653440",
    "stopname": "Bus stop",
    "lat": -31.8234635,
    "lon": 115.766828
  },
  {
    "stopid": "556653442",
    "stopname": "Bus stop",
    "lat": -31.8244885,
    "lon": 115.7630837
  },
  {
    "stopid": "556653445",
    "stopname": "Bus stop",
    "lat": -31.8244463,
    "lon": 115.7630427
  },
  {
    "stopid": "556653448",
    "stopname": "Bus stop",
    "lat": -31.8228079,
    "lon": 115.7694168
  },
  {
    "stopid": "556653451",
    "stopname": "Lilburne Rd After Readshaw Rd",
    "lat": -31.8212484,
    "lon": 115.7699053
  },
  {
    "stopid": "556653454",
    "stopname": "Lilburne Rd After Pinafore Ct",
    "lat": -31.8210483,
    "lon": 115.7699511
  },
  {
    "stopid": "556653457",
    "stopname": "Lilburne Rd After Hepburn Av",
    "lat": -31.8195143,
    "lon": 115.7697872
  },
  {
    "stopid": "556653460",
    "stopname": "Lilburne Rd After Sullivan Rd",
    "lat": -31.8195636,
    "lon": 115.7696278
  },
  {
    "stopid": "556653463",
    "stopname": "Hepburn Av After Gibson Av",
    "lat": -31.8176561,
    "lon": 115.7675211
  },
  {
    "stopid": "556653465",
    "stopname": "Hepburn Av After Lilburne Rd",
    "lat": -31.818059,
    "lon": 115.7679175
  },
  {
    "stopid": "556653476",
    "stopname": "Gibson Av Before Ellison Dr",
    "lat": -31.8161656,
    "lon": 115.7657408
  },
  {
    "stopid": "556653480",
    "stopname": "Gibson Av After Oleary Rd",
    "lat": -31.8161086,
    "lon": 115.7659755
  },
  {
    "stopid": "556653485",
    "stopname": "Gibson Av After Warburton Av",
    "lat": -31.813712,
    "lon": 115.7667527
  },
  {
    "stopid": "556653487",
    "stopname": "Warburton Av After Leichhardt Av",
    "lat": -31.8115088,
    "lon": 115.7666933
  },
  {
    "stopid": "556653492",
    "stopname": "Warburton Av After Gibson Av",
    "lat": -31.8115003,
    "lon": 115.7664546
  },
  {
    "stopid": "556653497",
    "stopname": "Warburton Av Before Leichhardt Av",
    "lat": -31.8113506,
    "lon": 115.7636389
  },
  {
    "stopid": "556653500",
    "stopname": "Warburton Av After Leichhardt Av",
    "lat": -31.8111628,
    "lon": 115.763994
  },
  {
    "stopid": "556653505",
    "stopname": "Gibson Av After Pinnaroo Dr",
    "lat": -31.8107044,
    "lon": 115.7687146
  },
  {
    "stopid": "556653508",
    "stopname": "Gibson Av Before Pinnaroo Dr",
    "lat": -31.8107727,
    "lon": 115.7685183
  },
  {
    "stopid": "556653510",
    "stopname": "Gibson Av After Pinnaroo Dr",
    "lat": -31.8055449,
    "lon": 115.7725421
  },
  {
    "stopid": "556653518",
    "stopname": "Gibson Av Before Pinnaroo Dr",
    "lat": -31.805712,
    "lon": 115.7725863
  },
  {
    "stopid": "556653521",
    "stopname": "Gibson Av After Warner Dr",
    "lat": -31.8002649,
    "lon": 115.7731938
  },
  {
    "stopid": "556653525",
    "stopname": "Gibson Av After Giles Av",
    "lat": -31.8038544,
    "lon": 115.7738423
  },
  {
    "stopid": "556653528",
    "stopname": "Gibson Av After Brisbane Dr",
    "lat": -31.8025721,
    "lon": 115.7738804
  },
  {
    "stopid": "556653532",
    "stopname": "Gibson Av Before Warner Dr",
    "lat": -31.7997841,
    "lon": 115.7726926
  },
  {
    "stopid": "556653542",
    "stopname": "Whitfords Av After Gibson Av",
    "lat": -31.7948078,
    "lon": 115.7719012
  },
  {
    "stopid": "556653545",
    "stopname": "Gibson Av After Warner Dr",
    "lat": -31.7974519,
    "lon": 115.7716597
  },
  {
    "stopid": "556653547",
    "stopname": "Gibson Av After Livingstone Wy",
    "lat": -31.7971431,
    "lon": 115.7717953
  },
  {
    "stopid": "556653560",
    "stopname": "Whitfords Av After Electra St",
    "lat": -31.7939144,
    "lon": 115.7677129
  },
  {
    "stopid": "556653567",
    "stopname": "Eddystone Av Before Allambie Dr",
    "lat": -31.7889238,
    "lon": 115.7663706
  },
  {
    "stopid": "556653570",
    "stopname": "Eddystone Av After Allambie Dr",
    "lat": -31.7893043,
    "lon": 115.7663738
  },
  {
    "stopid": "556653571",
    "stopname": "Eddystone Av Before Perilya Rd",
    "lat": -31.7864706,
    "lon": 115.767165
  },
  {
    "stopid": "556653576",
    "stopname": "Eddystone Av Before Warrandyte Dr",
    "lat": -31.7838741,
    "lon": 115.7681452
  },
  {
    "stopid": "556653589",
    "stopname": "Eddystone Av After Perilya Rd",
    "lat": -31.786361,
    "lon": 115.76733
  },
  {
    "stopid": "556653598",
    "stopname": "Eddystone Av Craigie Plaza Shopping Centre",
    "lat": -31.7835283,
    "lon": 115.7680945
  },
  {
    "stopid": "556653610",
    "stopname": "Eddystone Av After Bullara Rd",
    "lat": -31.7799575,
    "lon": 115.7668981
  },
  {
    "stopid": "556653614",
    "stopname": "Eddystone Av After Craigie Dr",
    "lat": -31.7797689,
    "lon": 115.7669477
  },
  {
    "stopid": "556653718",
    "stopname": "Gwendoline Dr opp Belridge Secondary Coll",
    "lat": -31.7720135,
    "lon": 115.7647315
  },
  {
    "stopid": "556653721",
    "stopname": "Gwendoline Dr Belridge Secondary Coll",
    "lat": -31.7719297,
    "lon": 115.7646306
  },
  {
    "stopid": "556653728",
    "stopname": "Bus stop",
    "lat": -31.7714719,
    "lon": 115.7644762
  },
  {
    "stopid": "556653731",
    "stopname": "Bus stop",
    "lat": -31.7713195,
    "lon": 115.7644492
  },
  {
    "stopid": "556653734",
    "stopname": "Bus stop",
    "lat": -31.7711007,
    "lon": 115.7644196
  },
  {
    "stopid": "556653773",
    "stopname": "Gradient Wy After Craigie Dr",
    "lat": -31.7807504,
    "lon": 115.7569367
  },
  {
    "stopid": "556653776",
    "stopname": "Gradient Wy After Emperor Av",
    "lat": -31.779313,
    "lon": 115.7569913
  },
  {
    "stopid": "556653854",
    "stopname": "Gradient Wy Before Gunter Gr",
    "lat": -31.7760142,
    "lon": 115.7572993
  },
  {
    "stopid": "556653857",
    "stopname": "Gradient Wy Beldon Shopping Centre",
    "lat": -31.7765728,
    "lon": 115.756834
  },
  {
    "stopid": "556653904",
    "stopname": "Giles Av After Young Pl",
    "lat": -31.8071228,
    "lon": 115.7614807
  },
  {
    "stopid": "556653906",
    "stopname": "Giles Av After Grey Rd",
    "lat": -31.8069262,
    "lon": 115.7614355
  },
  {
    "stopid": "556653908",
    "stopname": "Gradient Wy After Priscilla Av",
    "lat": -31.7744125,
    "lon": 115.7637423
  },
  {
    "stopid": "556653913",
    "stopname": "Gradient Wy After Cutter Cr",
    "lat": -31.7746171,
    "lon": 115.7603343
  },
  {
    "stopid": "556653915",
    "stopname": "Gradient Wy After Pacific Wy",
    "lat": -31.7747173,
    "lon": 115.7602608
  },
  {
    "stopid": "556653921",
    "stopname": "Marmion Av After Ensign Wy",
    "lat": -31.7737734,
    "lon": 115.75422
  },
  {
    "stopid": "557406155",
    "stopname": "Wellington St after George St",
    "lat": -31.948424,
    "lon": 115.8491568
  },
  {
    "stopid": "557406160",
    "stopname": "Wellington St After Outram St",
    "lat": -31.945925,
    "lon": 115.8418765
  },
  {
    "stopid": "557406163",
    "stopname": "Wellington St Harold Boas Gardens Cat Id 35",
    "lat": -31.9465394,
    "lon": 115.84393
  },
  {
    "stopid": "557406169",
    "stopname": "Wellington St Colin Street Cat Id 62",
    "lat": -31.9463413,
    "lon": 115.8427707
  },
  {
    "stopid": "557406171",
    "stopname": "Wellington St Watertown Cat Id 61",
    "lat": -31.9476519,
    "lon": 115.8468094
  },
  {
    "stopid": "557406173",
    "stopname": "Wellington St Watertown Cat Id 64",
    "lat": -31.9475028,
    "lon": 115.8471716
  },
  {
    "stopid": "557458093",
    "stopname": "Kings Park Rd Thomas Street Cat Id 140",
    "lat": -31.9506938,
    "lon": 115.8344641
  },
  {
    "stopid": "557458096",
    "stopname": "Kings Park Road after Walker Avenue",
    "lat": -31.9512554,
    "lon": 115.8362384
  },
  {
    "stopid": "557458098",
    "stopname": "Kings Park Rd Outram Street Cat Id 141",
    "lat": -31.951886,
    "lon": 115.8380101
  },
  {
    "stopid": "557458101",
    "stopname": "Outram Street",
    "lat": -31.9494946,
    "lon": 115.8393676
  },
  {
    "stopid": "557458103",
    "stopname": "Perth Modern",
    "lat": -31.9462625,
    "lon": 115.8393596
  },
  {
    "stopid": "557458105",
    "stopname": "Havelock Street",
    "lat": -31.9512928,
    "lon": 115.8431497
  },
  {
    "stopid": "557458107",
    "stopname": "Kings Park Rd Colin Street Cat Id 142",
    "lat": -31.9525517,
    "lon": 115.8400494
  },
  {
    "stopid": "557458110",
    "stopname": "Ord Street",
    "lat": -31.9504696,
    "lon": 115.840699
  },
  {
    "stopid": "557458117",
    "stopname": "Emerald Terrace",
    "lat": -31.9491898,
    "lon": 115.8434708
  },
  {
    "stopid": "557458120",
    "stopname": "Parliament",
    "lat": -31.9502718,
    "lon": 115.8467534
  },
  {
    "stopid": "557458122",
    "stopname": "Gordon Street",
    "lat": -31.9490202,
    "lon": 115.8470816
  },
  {
    "stopid": "557458124",
    "stopname": "West Perth",
    "lat": -31.9481869,
    "lon": 115.8403084
  },
  {
    "stopid": "559381369",
    "stopname": "Traylen Rd After Emmerson St",
    "lat": -31.8753938,
    "lon": 116.1798449
  },
  {
    "stopid": "559381375",
    "stopname": "Traylen Rd After Kevin St",
    "lat": -31.8754874,
    "lon": 116.1803323
  },
  {
    "stopid": "559381376",
    "stopname": "Kevin St After Traylen Rd",
    "lat": -31.8732207,
    "lon": 116.1811003
  },
  {
    "stopid": "559381385",
    "stopname": "Kevin St After Osborne St",
    "lat": -31.8728386,
    "lon": 116.181218
  },
  {
    "stopid": "559381387",
    "stopname": "Osborne St After Kevin St",
    "lat": -31.8712374,
    "lon": 116.1817999
  },
  {
    "stopid": "559381388",
    "stopname": "Osborne St After Short St",
    "lat": -31.8708361,
    "lon": 116.1866933
  },
  {
    "stopid": "559381418",
    "stopname": "Osborne St Before Short St",
    "lat": -31.8706601,
    "lon": 116.1870436
  },
  {
    "stopid": "559381420",
    "stopname": "Osborne St After Short St",
    "lat": -31.8703516,
    "lon": 116.1911325
  },
  {
    "stopid": "559381422",
    "stopname": "Osborne St After Bedford St",
    "lat": -31.8704591,
    "lon": 116.191182
  },
  {
    "stopid": "559381440",
    "stopname": "Stretch Rd After Traylen Rd",
    "lat": -31.8727495,
    "lon": 116.1948134
  },
  {
    "stopid": "559381454",
    "stopname": "Stretch Rd After Bedford St",
    "lat": -31.8728461,
    "lon": 116.1949562
  },
  {
    "stopid": "559549528",
    "stopname": "Flinders Av After Mawson Cr",
    "lat": -31.8086788,
    "lon": 115.7513518
  },
  {
    "stopid": "559549529",
    "stopname": "Flinders Av After Dobson Pl",
    "lat": -31.8088781,
    "lon": 115.7514797
  },
  {
    "stopid": "559549530",
    "stopname": "Waterford Dr After Flinders Av",
    "lat": -31.8095415,
    "lon": 115.753382
  },
  {
    "stopid": "559549532",
    "stopname": "Waterford Dr After Campbell Dr",
    "lat": -31.8097451,
    "lon": 115.7532528
  },
  {
    "stopid": "559549533",
    "stopname": "Waterford Dr Before Campbell Dr",
    "lat": -31.8114361,
    "lon": 115.7533937
  },
  {
    "stopid": "559549534",
    "stopname": "Waterford Dr Before Oliver St",
    "lat": -31.8114468,
    "lon": 115.7535298
  },
  {
    "stopid": "559549535",
    "stopname": "Waterford Dr Before Fenton Wy",
    "lat": -31.8127473,
    "lon": 115.7545496
  },
  {
    "stopid": "559549536",
    "stopname": "Waterford Dr After Fenton Wy",
    "lat": -31.8129165,
    "lon": 115.7548674
  },
  {
    "stopid": "559549537",
    "stopname": "Waterford Dr After McWhae Rd",
    "lat": -31.8140871,
    "lon": 115.755916
  },
  {
    "stopid": "559549538",
    "stopname": "Waterford Dr After Orbell Rd",
    "lat": -31.8141832,
    "lon": 115.7558372
  },
  {
    "stopid": "559549559",
    "stopname": "Grey Rd After Mckinlay Av",
    "lat": -31.8106342,
    "lon": 115.7599971
  },
  {
    "stopid": "559549560",
    "stopname": "Grey Rd Before Mckinlay Av",
    "lat": -31.8105877,
    "lon": 115.7597643
  },
  {
    "stopid": "559549561",
    "stopname": "Grey Rd After Lindsay Wy",
    "lat": -31.8087657,
    "lon": 115.7592282
  },
  {
    "stopid": "559549562",
    "stopname": "Grey Rd Before Buchanan Wy",
    "lat": -31.8084256,
    "lon": 115.759218
  },
  {
    "stopid": "559549563",
    "stopname": "Giles Av After Macgregor Dr",
    "lat": -31.8052412,
    "lon": 115.7664936
  },
  {
    "stopid": "559549565",
    "stopname": "Giles Av Before Phillip Ct",
    "lat": -31.8051166,
    "lon": 115.7668138
  },
  {
    "stopid": "559549576",
    "stopname": "Whitfords Av After Eddystone Av",
    "lat": -31.794863,
    "lon": 115.7643792
  },
  {
    "stopid": "559549577",
    "stopname": "Whitfords Av Before Eddystone Av",
    "lat": -31.7946435,
    "lon": 115.7642941
  },
  {
    "stopid": "559549644",
    "stopname": "Craigie Dr After Barwon Rd",
    "lat": -31.7815379,
    "lon": 115.7586452
  },
  {
    "stopid": "559549646",
    "stopname": "Craigie Dr After Gradient Wy",
    "lat": -31.7815416,
    "lon": 115.7583036
  },
  {
    "stopid": "559549649",
    "stopname": "Gradient Wy After Tasman Rd",
    "lat": -31.7743351,
    "lon": 115.7636637
  },
  {
    "stopid": "559549650",
    "stopname": "Gwendoline Dr Belridge Shopping Centre",
    "lat": -31.7698782,
    "lon": 115.7647234
  },
  {
    "stopid": "559549651",
    "stopname": "Gwendoline Dr Before Ocean Reef Rd",
    "lat": -31.7694584,
    "lon": 115.7647466
  },
  {
    "stopid": "559549652",
    "stopname": "Craigie Dr Before Leander St",
    "lat": -31.7777083,
    "lon": 115.770211
  },
  {
    "stopid": "559549658",
    "stopname": "Craigie Dr After Leander St",
    "lat": -31.7777815,
    "lon": 115.7704009
  },
  {
    "stopid": "559549661",
    "stopname": "Craigie Dr After Leander St",
    "lat": -31.7754969,
    "lon": 115.7722472
  },
  {
    "stopid": "559549662",
    "stopname": "Craigie Dr After Ocean Reef Rd",
    "lat": -31.7750307,
    "lon": 115.772386
  },
  {
    "stopid": "559549663",
    "stopname": "Bus stop",
    "lat": -31.7737984,
    "lon": 115.7742542
  },
  {
    "stopid": "559855298",
    "stopname": "Gibson Av Before Brazier Ri",
    "lat": -31.8139256,
    "lon": 115.7664888
  },
  {
    "stopid": "561073023",
    "stopname": "Kings Park Rd Dumas House Cat Id 44",
    "lat": -31.953577,
    "lon": 115.8432132
  },
  {
    "stopid": "561073025",
    "stopname": "Malcolm St Harvest Terrace Cat Id 23",
    "lat": -31.9530145,
    "lon": 115.8474872
  },
  {
    "stopid": "561073026",
    "stopname": "Malcolm St Harvest Terrace Cat Id 29",
    "lat": -31.9527864,
    "lon": 115.8475167
  },
  {
    "stopid": "561082343",
    "stopname": "Railway St City West Station Cat Id 37",
    "lat": -31.9446516,
    "lon": 115.8454356
  },
  {
    "stopid": "563668539",
    "stopname": "Cockman Rd After Penistone St",
    "lat": -31.8315174,
    "lon": 115.8147467
  },
  {
    "stopid": "563668542",
    "stopname": "Cockman Rd After Sherrington Rd",
    "lat": -31.8284385,
    "lon": 115.8152145
  },
  {
    "stopid": "563668550",
    "stopname": "Cockman Rd After Tabard St",
    "lat": -31.8285381,
    "lon": 115.8153353
  },
  {
    "stopid": "563668558",
    "stopname": "Cockman Rd Before Reilly Wy",
    "lat": -31.8261763,
    "lon": 115.8152428
  },
  {
    "stopid": "563668564",
    "stopname": "Hocking Rd after Mooro St",
    "lat": -31.8029787,
    "lon": 115.813959
  },
  {
    "stopid": "563668565",
    "stopname": "Hocking Rd Before Lakeway Dr",
    "lat": -31.8031123,
    "lon": 115.8138555
  },
  {
    "stopid": "563668569",
    "stopname": "Hocking Rd before Wanneroo Rd",
    "lat": -31.8020547,
    "lon": 115.8165058
  },
  {
    "stopid": "563668570",
    "stopname": "Hocking Rd After Wanneroo Rd",
    "lat": -31.8021696,
    "lon": 115.8164364
  },
  {
    "stopid": "563668571",
    "stopname": "Mooro St After Hocking Rd",
    "lat": -31.8033381,
    "lon": 115.8102951
  },
  {
    "stopid": "563668572",
    "stopname": "Mooro St after Whitfords Av",
    "lat": -31.8035441,
    "lon": 115.8104844
  },
  {
    "stopid": "566210027",
    "stopname": "Oats St Before Paterson Rd",
    "lat": -31.975066,
    "lon": 115.9309841
  },
  {
    "stopid": "567304648",
    "stopname": "Wellington Road after Wolseley Road",
    "lat": -31.8825579,
    "lon": 115.8830755
  },
  {
    "stopid": "569239976",
    "stopname": "Stirling Highway - University of Western Australia",
    "lat": -31.9758916,
    "lon": 115.8174875
  },
  {
    "stopid": "569240010",
    "stopname": "Mounts Bay Rd before Winthrop Av",
    "lat": -31.9756503,
    "lon": 115.8186704
  },
  {
    "stopid": "569240050",
    "stopname": "Stirling Hwy after Fairway",
    "lat": -31.9767854,
    "lon": 115.8152608
  },
  {
    "stopid": "569240087",
    "stopname": "Hackett Drive before Mounts Bay Road",
    "lat": -31.9803286,
    "lon": 115.8204578
  },
  {
    "stopid": "569240125",
    "stopname": "Hackett Drive after Parkway",
    "lat": -31.9863613,
    "lon": 115.8194123
  },
  {
    "stopid": "569953628",
    "stopname": "Albany Hwy After Mint St",
    "lat": -31.9837415,
    "lon": 115.902437
  },
  {
    "stopid": "569953638",
    "stopname": "Albany Hwy opp The Park Centre Shopping Ctr",
    "lat": -31.9837133,
    "lon": 115.9025925
  },
  {
    "stopid": "569968928",
    "stopname": "Fairway after Clark Street",
    "lat": -31.9798192,
    "lon": 115.815682
  },
  {
    "stopid": "569984686",
    "stopname": "Mounts Bay Rd After Winthrop Av",
    "lat": -31.9752821,
    "lon": 115.8190073
  },
  {
    "stopid": "569984688",
    "stopname": "Mounts Bay Road after Hackett Drive",
    "lat": -31.9747827,
    "lon": 115.8226685
  },
  {
    "stopid": "569997030",
    "stopname": "Broadway Broadway Fair North Cat Id 125",
    "lat": -31.9829447,
    "lon": 115.8144603
  },
  {
    "stopid": "569997032",
    "stopname": "Broadway Before Caporn St",
    "lat": -31.9840247,
    "lon": 115.8146049
  },
  {
    "stopid": "570001791",
    "stopname": "Hampden Road South Cat Id 128",
    "lat": -31.9758302,
    "lon": 115.8134752
  },
  {
    "stopid": "570001792",
    "stopname": "Hampden Rd Hampden Road South Cat Id 120",
    "lat": -31.9765414,
    "lon": 115.813801
  },
  {
    "stopid": "571097768",
    "stopname": "Stubbs Tce Shenton Park Stn Stand 1",
    "lat": -31.9598268,
    "lon": 115.8049713
  },
  {
    "stopid": "571097774",
    "stopname": "Stubbs Tce Shenton Park Stn Stand 2",
    "lat": -31.9596576,
    "lon": 115.8048188
  },
  {
    "stopid": "571097776",
    "stopname": "Stirling Hwy Before Vincent St",
    "lat": -31.979897,
    "lon": 115.7996747
  },
  {
    "stopid": "571097778",
    "stopname": "Claremont Station, Stand 1",
    "lat": -31.9813502,
    "lon": 115.7804556
  },
  {
    "stopid": "571126022",
    "stopname": "Newcastle Street after Beaufort Street",
    "lat": -31.9476566,
    "lon": 115.8643274
  },
  {
    "stopid": "571377293",
    "stopname": "Queen St After Adelaide St",
    "lat": -32.0529039,
    "lon": 115.747519
  },
  {
    "stopid": "571457769",
    "stopname": "Claremont Station, Stand 5",
    "lat": -31.9816043,
    "lon": 115.7802101
  },
  {
    "stopid": "571457772",
    "stopname": "Bus stop",
    "lat": -31.9804076,
    "lon": 115.7667187
  },
  {
    "stopid": "571457773",
    "stopname": "Bus stop",
    "lat": -31.9809138,
    "lon": 115.7663821
  },
  {
    "stopid": "571457777",
    "stopname": "Hampden Rd Karella Street Cat Id 129",
    "lat": -31.9739272,
    "lon": 115.8133849
  },
  {
    "stopid": "571457778",
    "stopname": "Hampden Rd Karella Street Cat Id 119",
    "lat": -31.9737397,
    "lon": 115.8135287
  },
  {
    "stopid": "571457779",
    "stopname": "Hospital Avenue North Cat Id 114",
    "lat": -31.9654521,
    "lon": 115.8165673
  },
  {
    "stopid": "571457780",
    "stopname": "Hospital Avenue North Cat Id 134",
    "lat": -31.9658894,
    "lon": 115.8164314
  },
  {
    "stopid": "571468987",
    "stopname": "Marmion Av Before Marri Rd",
    "lat": -31.8310137,
    "lon": 115.7637729
  },
  {
    "stopid": "571468989",
    "stopname": "Marmion Av After Marri Rd",
    "lat": -31.8333184,
    "lon": 115.7643857
  },
  {
    "stopid": "571468991",
    "stopname": "Marmion Av After Warwick Rd",
    "lat": -31.8337796,
    "lon": 115.7640794
  },
  {
    "stopid": "571468993",
    "stopname": "Marmion Av After Marri Rd",
    "lat": -31.830961,
    "lon": 115.7633494
  },
  {
    "stopid": "571468998",
    "stopname": "Marmion Av Before Seacrest Dr",
    "lat": -31.828849,
    "lon": 115.7625898
  },
  {
    "stopid": "571469000",
    "stopname": "Marmion Av After Seacrest Dr",
    "lat": -31.8279808,
    "lon": 115.7627144
  },
  {
    "stopid": "571469002",
    "stopname": "Marmion Av After Readshaw Rd",
    "lat": -31.8242542,
    "lon": 115.7611128
  },
  {
    "stopid": "571469005",
    "stopname": "Marmion Av After Harman Rd",
    "lat": -31.821746,
    "lon": 115.76085
  },
  {
    "stopid": "571469007",
    "stopname": "Marmion Av After Gilbert Rd",
    "lat": -31.8188528,
    "lon": 115.7605751
  },
  {
    "stopid": "571469008",
    "stopname": "Bus stop",
    "lat": -31.8150695,
    "lon": 115.7594988
  },
  {
    "stopid": "571469009",
    "stopname": "Bus stop",
    "lat": -31.813444,
    "lon": 115.7579928
  },
  {
    "stopid": "571469012",
    "stopname": "Bus stop",
    "lat": -31.8110964,
    "lon": 115.7560314
  },
  {
    "stopid": "571469014",
    "stopname": "Bus stop",
    "lat": -31.8068495,
    "lon": 115.7561081
  },
  {
    "stopid": "571469015",
    "stopname": "Bus stop",
    "lat": -31.8042562,
    "lon": 115.7559584
  },
  {
    "stopid": "571469016",
    "stopname": "Bus stop",
    "lat": -31.8020986,
    "lon": 115.7551546
  },
  {
    "stopid": "571469017",
    "stopname": "Cook Av After Marmion Av",
    "lat": -31.8016602,
    "lon": 115.7537767
  },
  {
    "stopid": "571469018",
    "stopname": "Cook Av After Bootie Pl",
    "lat": -31.8016954,
    "lon": 115.7534501
  },
  {
    "stopid": "571469019",
    "stopname": "Whitfords Av Opposite Alexander Rd",
    "lat": -31.7955414,
    "lon": 115.761679
  },
  {
    "stopid": "571469027",
    "stopname": "Whitfords Av Before Gibson Av",
    "lat": -31.7959949,
    "lon": 115.7741733
  },
  {
    "stopid": "571469028",
    "stopname": "Whitfords Av After Mitchell Fwy",
    "lat": -31.7981137,
    "lon": 115.7783346
  },
  {
    "stopid": "571469043",
    "stopname": "Edgewater Dr Before Wisteria Pde",
    "lat": -31.772669,
    "lon": 115.7892861
  },
  {
    "stopid": "571469045",
    "stopname": "Edgewater Dr After Garrong Cl",
    "lat": -31.7721792,
    "lon": 115.7896187
  },
  {
    "stopid": "571469068",
    "stopname": "Edgewater Dr Before Wedgewood Dr",
    "lat": -31.770512,
    "lon": 115.7904774
  },
  {
    "stopid": "571469069",
    "stopname": "Edgewater Dr After Wedgewood Dr",
    "lat": -31.7703932,
    "lon": 115.7906915
  },
  {
    "stopid": "571469120",
    "stopname": "Treetop Av After Lakeview Dr",
    "lat": -31.7666759,
    "lon": 115.7838594
  },
  {
    "stopid": "571469122",
    "stopname": "Treetop Av Before Lakeview Dr",
    "lat": -31.7670094,
    "lon": 115.7840185
  },
  {
    "stopid": "571469134",
    "stopname": "Treetop Av Before Wedgewood Dr",
    "lat": -31.7689717,
    "lon": 115.7858451
  },
  {
    "stopid": "571469135",
    "stopname": "Treetop Av After Wedgewood Dr",
    "lat": -31.7693444,
    "lon": 115.7859211
  },
  {
    "stopid": "571469136",
    "stopname": "Wedgewood Dr After Treetop Av",
    "lat": -31.7694014,
    "lon": 115.788033
  },
  {
    "stopid": "571469150",
    "stopname": "Wedgewood Dr After Lakeview Dr",
    "lat": -31.769455,
    "lon": 115.7883005
  },
  {
    "stopid": "571490338",
    "stopname": "Stirling Hwy Before Victoria St",
    "lat": -32.0122029,
    "lon": 115.7551564
  },
  {
    "stopid": "571490339",
    "stopname": "Stirling Highway after Victoria Street",
    "lat": -32.0120165,
    "lon": 115.7553872
  },
  {
    "stopid": "571490340",
    "stopname": "Preston Point Rd After Fraser St",
    "lat": -32.034285,
    "lon": 115.7646938
  },
  {
    "stopid": "571586592",
    "stopname": "Broome Street after Stanhope Street",
    "lat": -31.9966225,
    "lon": 115.7561208
  },
  {
    "stopid": "572097034",
    "stopname": "Hester Av After Renshaw Bvd",
    "lat": -31.674384,
    "lon": 115.7153893
  },
  {
    "stopid": "572097056",
    "stopname": "Hester Av After Baltimore Pde",
    "lat": -31.6742856,
    "lon": 115.7161227
  },
  {
    "stopid": "572097077",
    "stopname": "Bus stop",
    "lat": -31.6756829,
    "lon": 115.714069
  },
  {
    "stopid": "572097097",
    "stopname": "Bus stop",
    "lat": -31.6756365,
    "lon": 115.7134776
  },
  {
    "stopid": "572097147",
    "stopname": "Bus stop",
    "lat": -31.6725714,
    "lon": 115.7186024
  },
  {
    "stopid": "572097163",
    "stopname": "Bus stop",
    "lat": -31.6725121,
    "lon": 115.7180787
  },
  {
    "stopid": "572485746",
    "stopname": "Bus stop",
    "lat": -31.9683807,
    "lon": 115.7958861
  },
  {
    "stopid": "576201789",
    "stopname": "Hepburn Av After Walter Padbury Bvd",
    "lat": -31.8195268,
    "lon": 115.7729417
  },
  {
    "stopid": "576201794",
    "stopname": "Hepburn Av After Lilburne Rd",
    "lat": -31.8190528,
    "lon": 115.7718418
  },
  {
    "stopid": "576201799",
    "stopname": "Hepburn Av After Walter Padbury Bvd",
    "lat": -31.8192805,
    "lon": 115.7745011
  },
  {
    "stopid": "576201805",
    "stopname": "Bus stop",
    "lat": -31.8179394,
    "lon": 115.7787288
  },
  {
    "stopid": "576201809",
    "stopname": "Bus stop",
    "lat": -31.8178425,
    "lon": 115.778377
  },
  {
    "stopid": "576201814",
    "stopname": "Whitfords Av After Kingsley Dr",
    "lat": -31.7981956,
    "lon": 115.7872506
  },
  {
    "stopid": "576201819",
    "stopname": "Whitfords Av After Timbercrest Rise",
    "lat": -31.7998594,
    "lon": 115.790912
  },
  {
    "stopid": "576201824",
    "stopname": "Whitfords Av After Trappers Dr",
    "lat": -31.8005697,
    "lon": 115.7946906
  },
  {
    "stopid": "576201828",
    "stopname": "Whitfords Av After Barridale Dr",
    "lat": -31.8015734,
    "lon": 115.8017279
  },
  {
    "stopid": "576201835",
    "stopname": "Whitfords Av After Moolanda Bvd",
    "lat": -31.8028097,
    "lon": 115.8049409
  },
  {
    "stopid": "576201957",
    "stopname": "Whitfords Av After Mooro St",
    "lat": -31.8031123,
    "lon": 115.8073912
  },
  {
    "stopid": "576201963",
    "stopname": "Whitfords Avenue before Wanneroo Road",
    "lat": -31.8003117,
    "lon": 115.8148124
  },
  {
    "stopid": "576201969",
    "stopname": "Whitfords Avenue after Wanneroo Road",
    "lat": -31.8005779,
    "lon": 115.8150062
  },
  {
    "stopid": "576201991",
    "stopname": "Treetop Av After Emerald Wy",
    "lat": -31.7652797,
    "lon": 115.7819591
  },
  {
    "stopid": "576201999",
    "stopname": "Treetop Av After Outlook Dr",
    "lat": -31.7652027,
    "lon": 115.7820063
  },
  {
    "stopid": "576202200",
    "stopname": "Edgewater Dr After Quarry Rmbl",
    "lat": -31.7632518,
    "lon": 115.7896369
  },
  {
    "stopid": "576202204",
    "stopname": "Edgewater Dr Before Quarry Rmbl",
    "lat": -31.7634065,
    "lon": 115.7899384
  },
  {
    "stopid": "576202209",
    "stopname": "Edgewater Dr After Parkland Cl",
    "lat": -31.7648892,
    "lon": 115.7912725
  },
  {
    "stopid": "576202213",
    "stopname": "Edgewater Dr Before Parkland Cl",
    "lat": -31.7650772,
    "lon": 115.79155
  },
  {
    "stopid": "576202225",
    "stopname": "Edgewater Dr After Ridge Cl",
    "lat": -31.7670826,
    "lon": 115.7920706
  },
  {
    "stopid": "576202231",
    "stopname": "Edgewater Dr Before Ridge Cl",
    "lat": -31.7672121,
    "lon": 115.7921884
  },
  {
    "stopid": "576202242",
    "stopname": "Edgewater Dr Before Outlook Dr",
    "lat": -31.7612417,
    "lon": 115.7870318
  },
  {
    "stopid": "576202249",
    "stopname": "Edgewater Dr After Outlook Dr",
    "lat": -31.7610871,
    "lon": 115.7870059
  },
  {
    "stopid": "576202254",
    "stopname": "Edgewater Dr After Lakehill Gdns",
    "lat": -31.7597954,
    "lon": 115.7842016
  },
  {
    "stopid": "576202264",
    "stopname": "Edgewater Dr After Lakerise Mews",
    "lat": -31.7596434,
    "lon": 115.7841775
  },
  {
    "stopid": "576202354",
    "stopname": "Whitfords Av Before Timbercrest Rise",
    "lat": -31.7991988,
    "lon": 115.7902468
  },
  {
    "stopid": "576202358",
    "stopname": "Whitfords Av After Mitchell Fwy",
    "lat": -31.7978238,
    "lon": 115.7860589
  },
  {
    "stopid": "576202364",
    "stopname": "Bus stop",
    "lat": -31.8372884,
    "lon": 115.7818167
  },
  {
    "stopid": "577492267",
    "stopname": "Hospital Av QEII Medical Centre Cat Id 133",
    "lat": -31.9676617,
    "lon": 115.8166589
  },
  {
    "stopid": "577492268",
    "stopname": "Mounts Bay Rd Before Wingfield Av",
    "lat": -31.973568,
    "lon": 115.8252284
  },
  {
    "stopid": "579678010",
    "stopname": "Cliff St After Ozone Rd",
    "lat": -31.8414669,
    "lon": 115.7535965
  },
  {
    "stopid": "579678016",
    "stopname": "Cliff St Before Ozone Rd",
    "lat": -31.841184,
    "lon": 115.7534667
  },
  {
    "stopid": "579678032",
    "stopname": "Cliff St Before Gull St",
    "lat": -31.8382969,
    "lon": 115.7531013
  },
  {
    "stopid": "579678036",
    "stopname": "Cliff St Before Marine Tce",
    "lat": -31.8380766,
    "lon": 115.7530225
  },
  {
    "stopid": "579678043",
    "stopname": "West Coast Dr After High St",
    "lat": -31.8369975,
    "lon": 115.7497907
  },
  {
    "stopid": "579678044",
    "stopname": "West Coast Dr After Clontarf St",
    "lat": -31.8357755,
    "lon": 115.7492572
  },
  {
    "stopid": "579678045",
    "stopname": "West Coast Dr Before Clontarf St",
    "lat": -31.8350863,
    "lon": 115.749186
  },
  {
    "stopid": "579678047",
    "stopname": "West Coast Dr After Raleigh Rd",
    "lat": -31.8322801,
    "lon": 115.7472157
  },
  {
    "stopid": "579678053",
    "stopname": "Bus stop",
    "lat": -31.8321153,
    "lon": 115.7472897
  },
  {
    "stopid": "579678056",
    "stopname": "Padbury Cir Before Grenville Av",
    "lat": -31.8298841,
    "lon": 115.749027
  },
  {
    "stopid": "579678059",
    "stopname": "Hood Tce After Parker Av",
    "lat": -31.8295829,
    "lon": 115.7512907
  },
  {
    "stopid": "579678061",
    "stopname": "Hood Tce Before Parker Av",
    "lat": -31.8294835,
    "lon": 115.7513523
  },
  {
    "stopid": "579678063",
    "stopname": "Hood Tce Before Kempenfeldt Av",
    "lat": -31.8298002,
    "lon": 115.7535442
  },
  {
    "stopid": "579678066",
    "stopname": "Kempenfeldt Av Before Hood Tce",
    "lat": -31.8301046,
    "lon": 115.7539898
  },
  {
    "stopid": "579678069",
    "stopname": "Kempenfeldt Av Before Parnell Av",
    "lat": -31.831695,
    "lon": 115.7564989
  },
  {
    "stopid": "579678071",
    "stopname": "Kempenfeldt Av After Parnell Av",
    "lat": -31.831766,
    "lon": 115.7571116
  },
  {
    "stopid": "579678073",
    "stopname": "Parnell Av Before Warwick Rd",
    "lat": -31.8334905,
    "lon": 115.7586511
  },
  {
    "stopid": "579678076",
    "stopname": "Parnell Av After Warwick Rd",
    "lat": -31.8335789,
    "lon": 115.7585364
  },
  {
    "stopid": "579678078",
    "stopname": "Warwick Rd After Myrtle Av",
    "lat": -31.8344842,
    "lon": 115.7592079
  },
  {
    "stopid": "579678079",
    "stopname": "Warwick Rd After Myrtle Av",
    "lat": -31.8344137,
    "lon": 115.7602078
  },
  {
    "stopid": "579678080",
    "stopname": "Freeman Wy Before Keppell Rd",
    "lat": -31.8367505,
    "lon": 115.7626929
  },
  {
    "stopid": "579678082",
    "stopname": "Freeman Wy After Marmion Av",
    "lat": -31.836826,
    "lon": 115.7625294
  },
  {
    "stopid": "579678111",
    "stopname": "Bus stop",
    "lat": -31.8276148,
    "lon": 115.7607864
  },
  {
    "stopid": "579678113",
    "stopname": "Bus stop",
    "lat": -31.827816,
    "lon": 115.7599595
  },
  {
    "stopid": "579678116",
    "stopname": "Seacrest Dr After Haynes Rd",
    "lat": -31.8265787,
    "lon": 115.7535162
  },
  {
    "stopid": "579678118",
    "stopname": "Seacrest Dr After Saint Helier Dr",
    "lat": -31.8258783,
    "lon": 115.753047
  },
  {
    "stopid": "579678120",
    "stopname": "Seacrest Dr After St Helier Dr",
    "lat": -31.8240673,
    "lon": 115.7526967
  },
  {
    "stopid": "579678121",
    "stopname": "Bus stop",
    "lat": -31.8227636,
    "lon": 115.757161
  },
  {
    "stopid": "579678125",
    "stopname": "Seacrest Dr After Lacepede Dr",
    "lat": -31.821025,
    "lon": 115.7538649
  },
  {
    "stopid": "579678128",
    "stopname": "Seacrest Dr After Ashmore Wy",
    "lat": -31.8202259,
    "lon": 115.7543008
  },
  {
    "stopid": "579678130",
    "stopname": "Seacrest Dr After Hepburn Av",
    "lat": -31.8182478,
    "lon": 115.7543678
  },
  {
    "stopid": "579678131",
    "stopname": "Seacrest Dr After Ashmore Wy",
    "lat": -31.8182716,
    "lon": 115.7542333
  },
  {
    "stopid": "579678133",
    "stopname": "Orbell Rd After Hepburn Av",
    "lat": -31.816303,
    "lon": 115.7568041
  },
  {
    "stopid": "579678136",
    "stopname": "Orbell Rd After Maquire Rd",
    "lat": -31.8161344,
    "lon": 115.7568417
  },
  {
    "stopid": "579678143",
    "stopname": "Waterford Dr Before Lukin Rd",
    "lat": -31.8170209,
    "lon": 115.7502818
  },
  {
    "stopid": "579678144",
    "stopname": "Waterford Dr Before Waraker Rd",
    "lat": -31.8168826,
    "lon": 115.7505046
  },
  {
    "stopid": "579678146",
    "stopname": "Waterford Dr Before Lymburner Dr",
    "lat": -31.8162614,
    "lon": 115.7468281
  },
  {
    "stopid": "579678149",
    "stopname": "Waterford Dr After Lymburner Dr",
    "lat": -31.8163992,
    "lon": 115.7469372
  },
  {
    "stopid": "579678151",
    "stopname": "Waterford Dr After Tobago Rise",
    "lat": -31.8153341,
    "lon": 115.7448404
  },
  {
    "stopid": "579678154",
    "stopname": "Waterford Dr After Marbella Dr",
    "lat": -31.8151775,
    "lon": 115.7448958
  },
  {
    "stopid": "579678155",
    "stopname": "Waterford Dr Before Tuxen Pl",
    "lat": -31.8127329,
    "lon": 115.7444196
  },
  {
    "stopid": "579678159",
    "stopname": "Waterford Dr After Angove Dr",
    "lat": -31.8128221,
    "lon": 115.7443057
  },
  {
    "stopid": "579678162",
    "stopname": "Waterford Dr After Murray Dr",
    "lat": -31.810271,
    "lon": 115.7444227
  },
  {
    "stopid": "579678164",
    "stopname": "Waterford Dr Before Murray Dr",
    "lat": -31.810003,
    "lon": 115.7443005
  },
  {
    "stopid": "579678166",
    "stopname": "Flinders Av After Waterford Dr",
    "lat": -31.808724,
    "lon": 115.7430657
  },
  {
    "stopid": "579678167",
    "stopname": "Flinders Av After Cook Av",
    "lat": -31.8087857,
    "lon": 115.7427079
  },
  {
    "stopid": "579678168",
    "stopname": "Cook Av Before Meruka Rtt",
    "lat": -31.8077561,
    "lon": 115.7408748
  },
  {
    "stopid": "579678170",
    "stopname": "Cook Av After Meruka Rtt",
    "lat": -31.8076814,
    "lon": 115.7409372
  },
  {
    "stopid": "579678173",
    "stopname": "Cook Av After Woodville Hts",
    "lat": -31.8048149,
    "lon": 115.7395544
  },
  {
    "stopid": "579678177",
    "stopname": "Cook Av After Meadowbank Gdns",
    "lat": -31.8048605,
    "lon": 115.7396579
  },
  {
    "stopid": "579678185",
    "stopname": "Bus stop",
    "lat": -31.783461,
    "lon": 115.7554611
  },
  {
    "stopid": "579678188",
    "stopname": "Marmion Av Beldon Shopping Centre",
    "lat": -31.7760926,
    "lon": 115.7545454
  },
  {
    "stopid": "579678231",
    "stopname": "Ocean Reef Rd After Eddystone Av",
    "lat": -31.7704868,
    "lon": 115.7692157
  },
  {
    "stopid": "579678233",
    "stopname": "Ocean Reef Rd Before Marybrook Rd",
    "lat": -31.771546,
    "lon": 115.7704256
  },
  {
    "stopid": "579678234",
    "stopname": "Bus stop",
    "lat": -31.7737823,
    "lon": 115.7747996
  },
  {
    "stopid": "579678254",
    "stopname": "Bus stop",
    "lat": -31.7702605,
    "lon": 115.7802551
  },
  {
    "stopid": "579678256",
    "stopname": "Bus stop",
    "lat": -31.7697616,
    "lon": 115.7801705
  },
  {
    "stopid": "579678259",
    "stopname": "Regatta Dr After Edgewater Dr",
    "lat": -31.7596278,
    "lon": 115.7812937
  },
  {
    "stopid": "579678260",
    "stopname": "Regatta Dr Before Edgewater Dr",
    "lat": -31.7601091,
    "lon": 115.7801655
  },
  {
    "stopid": "579678262",
    "stopname": "Regatta Dr Before Treetop Av",
    "lat": -31.7608244,
    "lon": 115.7797787
  },
  {
    "stopid": "579678264",
    "stopname": "Regatta Dr Before Treetop Av",
    "lat": -31.7625183,
    "lon": 115.7788885
  },
  {
    "stopid": "579678266",
    "stopname": "Regatta Dr After Treetop Av",
    "lat": -31.7625528,
    "lon": 115.7787539
  },
  {
    "stopid": "579678268",
    "stopname": "Treetop Av After Joondalup Dr",
    "lat": -31.7631315,
    "lon": 115.7768126
  },
  {
    "stopid": "579678271",
    "stopname": "Treetop Av After Pioneer Dr",
    "lat": -31.7632843,
    "lon": 115.7765424
  },
  {
    "stopid": "579678272",
    "stopname": "Bus stop",
    "lat": -31.7635723,
    "lon": 115.7759284
  },
  {
    "stopid": "579678273",
    "stopname": "Bus stop",
    "lat": -31.7636185,
    "lon": 115.7753944
  },
  {
    "stopid": "579678274",
    "stopname": "Bus stop",
    "lat": -31.7636249,
    "lon": 115.7755903
  },
  {
    "stopid": "579678296",
    "stopname": "Lakeside Dr Before Joondalup Dr",
    "lat": -31.7553051,
    "lon": 115.7764799
  },
  {
    "stopid": "579678297",
    "stopname": "Lakeside Dr After Deakin Gte",
    "lat": -31.7553005,
    "lon": 115.7763594
  },
  {
    "stopid": "579678387",
    "stopname": "Bus stop",
    "lat": -31.8165686,
    "lon": 115.7642973
  },
  {
    "stopid": "579678388",
    "stopname": "Bus stop",
    "lat": -31.8170853,
    "lon": 115.7649293
  },
  {
    "stopid": "579730831",
    "stopname": "Stirling Hwy After Broadway",
    "lat": -31.9777099,
    "lon": 115.8121185
  },
  {
    "stopid": "579731164",
    "stopname": "Mounts Bay Rd - Old Swan Brewery",
    "lat": -31.9655091,
    "lon": 115.8400097
  },
  {
    "stopid": "579904855",
    "stopname": "Oxford Street - Leederville TAFE",
    "lat": -31.9339534,
    "lon": 115.8413144
  },
  {
    "stopid": "579946042",
    "stopname": "Selby St Before Nash St",
    "lat": -31.9544174,
    "lon": 115.8051306
  },
  {
    "stopid": "579946100",
    "stopname": "Thomas St Onslow Road Cat Id 113",
    "lat": -31.9609446,
    "lon": 115.82173
  },
  {
    "stopid": "579946105",
    "stopname": "Thomas St Rokeby Road Cat Id 112",
    "lat": -31.9593417,
    "lon": 115.8235936
  },
  {
    "stopid": "579946115",
    "stopname": "Thomas St Rokeby Road Cat Id 136",
    "lat": -31.9591073,
    "lon": 115.8233629
  },
  {
    "stopid": "580793559",
    "stopname": "Claisebrook Station",
    "lat": -31.9509273,
    "lon": 115.8712134
  },
  {
    "stopid": "582869102",
    "stopname": "Cliff St After Sheppard Wy",
    "lat": -31.8444735,
    "lon": 115.7538101
  },
  {
    "stopid": "582869103",
    "stopname": "Cliff St Before Lennard St",
    "lat": -31.8443395,
    "lon": 115.7537239
  },
  {
    "stopid": "582869104",
    "stopname": "Bus stop",
    "lat": -31.8453737,
    "lon": 115.7518372
  },
  {
    "stopid": "582869105",
    "stopname": "Bus stop",
    "lat": -31.8453669,
    "lon": 115.7516855
  },
  {
    "stopid": "582869817",
    "stopname": "Bus stop",
    "lat": -31.8432296,
    "lon": 115.7564357
  },
  {
    "stopid": "582869818",
    "stopname": "Bus stop",
    "lat": -31.8432479,
    "lon": 115.7579942
  },
  {
    "stopid": "582870679",
    "stopname": "St Helier Dr After Nerida Pl",
    "lat": -31.8252208,
    "lon": 115.7452482
  },
  {
    "stopid": "582870690",
    "stopname": "St Helier Dr After Nerida Pl",
    "lat": -31.8254579,
    "lon": 115.7449586
  },
  {
    "stopid": "582872419",
    "stopname": "West Coast Dr Before St Helier Dr",
    "lat": -31.8248113,
    "lon": 115.7426626
  },
  {
    "stopid": "582872423",
    "stopname": "West Coast Dr Hillarys Boat Harbour",
    "lat": -31.8236395,
    "lon": 115.7419963
  },
  {
    "stopid": "582881963",
    "stopname": "Mawson Cr Before David Gr",
    "lat": -31.8065295,
    "lon": 115.7508001
  },
  {
    "stopid": "582881964",
    "stopname": "Mawson Cr After David Cr",
    "lat": -31.8066266,
    "lon": 115.7508952
  },
  {
    "stopid": "582881965",
    "stopname": "Mawson Cr Before Debenham Wy",
    "lat": -31.8041276,
    "lon": 115.749411
  },
  {
    "stopid": "582881966",
    "stopname": "Mawson Cr Before Joyce Ct",
    "lat": -31.804024,
    "lon": 115.7497248
  },
  {
    "stopid": "582883022",
    "stopname": "Bus stop",
    "lat": -31.8001556,
    "lon": 115.7441701
  },
  {
    "stopid": "582895827",
    "stopname": "Bus stop",
    "lat": -31.7249603,
    "lon": 115.7870102
  },
  {
    "stopid": "582895828",
    "stopname": "Wanneroo Rd After Conti Rd",
    "lat": -31.7259865,
    "lon": 115.7872994
  },
  {
    "stopid": "582895829",
    "stopname": "Bus stop",
    "lat": -31.7296621,
    "lon": 115.7898426
  },
  {
    "stopid": "582912524",
    "stopname": "Shackleton Av After Pindari Pl",
    "lat": -31.8026771,
    "lon": 115.7471546
  },
  {
    "stopid": "582912526",
    "stopname": "Shackleton Av After Cook Av",
    "lat": -31.8026575,
    "lon": 115.7472836
  },
  {
    "stopid": "582912527",
    "stopname": "Endeavour Rd After Whitfords Av",
    "lat": -31.7974857,
    "lon": 115.7453467
  },
  {
    "stopid": "582912529",
    "stopname": "Marmion Av After Whitfords Av",
    "lat": -31.7946139,
    "lon": 115.7539605
  },
  {
    "stopid": "582912583",
    "stopname": "Marmion Av After Linear Av",
    "lat": -31.7739723,
    "lon": 115.7539373
  },
  {
    "stopid": "582912586",
    "stopname": "Bus stop",
    "lat": -31.7172856,
    "lon": 115.7743518
  },
  {
    "stopid": "582912587",
    "stopname": "Bus stop",
    "lat": -31.7169151,
    "lon": 115.7746427
  },
  {
    "stopid": "582912588",
    "stopname": "Joondalup Dr After Wanneroo Rd",
    "lat": -31.7171342,
    "lon": 115.7766708
  },
  {
    "stopid": "585133199",
    "stopname": "Albany Hwy Before Mills St",
    "lat": -32.0086173,
    "lon": 115.9246578
  },
  {
    "stopid": "585133200",
    "stopname": "Albany Hwy After Leach Hwy",
    "lat": -32.0065809,
    "lon": 115.9229193
  },
  {
    "stopid": "585133202",
    "stopname": "Albany Hwy After Bedford St",
    "lat": -32.0037202,
    "lon": 115.9205412
  },
  {
    "stopid": "585133203",
    "stopname": "Albany Hwy After John St",
    "lat": -32.0032667,
    "lon": 115.9204764
  },
  {
    "stopid": "585133204",
    "stopname": "Albany Hwy After Burton St",
    "lat": -32.0088235,
    "lon": 115.9243756
  },
  {
    "stopid": "588349199",
    "stopname": "Davallia Rd Carine Glades Shopping Centre",
    "lat": -31.8450079,
    "lon": 115.7854465
  },
  {
    "stopid": "597287388",
    "stopname": "Eddystone Av After Caridean St",
    "lat": -31.7660322,
    "lon": 115.7705761
  },
  {
    "stopid": "597287389",
    "stopname": "Eddystone Av After Draconis St",
    "lat": -31.7661057,
    "lon": 115.7704301
  },
  {
    "stopid": "597287390",
    "stopname": "Eddystone Av After Conidae Dr",
    "lat": -31.7683727,
    "lon": 115.7696805
  },
  {
    "stopid": "597287398",
    "stopname": "Eddystone Av After Ocean Reef Rd",
    "lat": -31.7682564,
    "lon": 115.7695249
  },
  {
    "stopid": "597298177",
    "stopname": "Bus stop",
    "lat": -31.8168997,
    "lon": 115.7951973
  },
  {
    "stopid": "597298181",
    "stopname": "Bus stop",
    "lat": -31.8208507,
    "lon": 115.8033029
  },
  {
    "stopid": "598617294",
    "stopname": "The Boulevard Before Kateena Rd",
    "lat": -31.927072,
    "lon": 115.7668494
  },
  {
    "stopid": "598617297",
    "stopname": "Bus stop",
    "lat": -31.9273336,
    "lon": 115.769747
  },
  {
    "stopid": "598766190",
    "stopname": "The Boulevard Before Clanmel Rd",
    "lat": -31.932485,
    "lon": 115.7880551
  },
  {
    "stopid": "598766191",
    "stopname": "Chipping Rd Before Belford Rd",
    "lat": -31.9256165,
    "lon": 115.7585073
  },
  {
    "stopid": "598789210",
    "stopname": "Hale Rd Terminus",
    "lat": -31.9135012,
    "lon": 115.7602509
  },
  {
    "stopid": "600267755",
    "stopname": "Fitzgerald Street after James Street",
    "lat": -31.9451597,
    "lon": 115.8528647
  },
  {
    "stopid": "600291922",
    "stopname": "Railway Parade after Rosslyn Street",
    "lat": -31.9424846,
    "lon": 115.8326674
  },
  {
    "stopid": "600328505",
    "stopname": "Fitzgerald Street after Randell Street",
    "lat": -31.9398923,
    "lon": 115.8563339
  },
  {
    "stopid": "600328520",
    "stopname": "Fitzgerald Street after Grosvenor Road",
    "lat": -31.9353649,
    "lon": 115.8587166
  },
  {
    "stopid": "600328623",
    "stopname": "William Street after Chatsworth Road",
    "lat": -31.9371207,
    "lon": 115.8660105
  },
  {
    "stopid": "600328700",
    "stopname": "Alexander Drive before Central Avenue",
    "lat": -31.9159985,
    "lon": 115.867072
  },
  {
    "stopid": "600368045",
    "stopname": "Mounts Bay Rd - Mount Hospital",
    "lat": -31.9589032,
    "lon": 115.8461248
  },
  {
    "stopid": "600398568",
    "stopname": "Selby St Before Cambridge St",
    "lat": -31.9403954,
    "lon": 115.8042888
  },
  {
    "stopid": "600398570",
    "stopname": "Cambridge St After Marlow St",
    "lat": -31.9407145,
    "lon": 115.8083121
  },
  {
    "stopid": "600398571",
    "stopname": "Cambridge St Before Marlow St",
    "lat": -31.9408472,
    "lon": 115.8084768
  },
  {
    "stopid": "600398573",
    "stopname": "Cambridge St After Jersey St",
    "lat": -31.9407086,
    "lon": 115.8125947
  },
  {
    "stopid": "600398576",
    "stopname": "Grantham St Before Crosby St",
    "lat": -31.9343403,
    "lon": 115.8025989
  },
  {
    "stopid": "600398578",
    "stopname": "Grantham St Before Selby St",
    "lat": -31.9342198,
    "lon": 115.8034266
  },
  {
    "stopid": "600398580",
    "stopname": "Selby St Before Herdsman Pde",
    "lat": -31.932849,
    "lon": 115.8040584
  },
  {
    "stopid": "600398584",
    "stopname": "Grantham St Before Reserve St",
    "lat": -31.9342441,
    "lon": 115.8061116
  },
  {
    "stopid": "600398586",
    "stopname": "Selby St After Flynn St",
    "lat": -31.9320333,
    "lon": 115.8042187
  },
  {
    "stopid": "600398713",
    "stopname": "Cambridge St After Woollcott L",
    "lat": -31.9406619,
    "lon": 115.8272702
  },
  {
    "stopid": "600416551",
    "stopname": "Bagot Rd after Railway Rd",
    "lat": -31.9503016,
    "lon": 115.8168917
  },
  {
    "stopid": "600416574",
    "stopname": "Cambridge St Before Selby St",
    "lat": -31.9407178,
    "lon": 115.8035538
  },
  {
    "stopid": "600416575",
    "stopname": "Cambridge St Before Selby St",
    "lat": -31.9408579,
    "lon": 115.8046627
  },
  {
    "stopid": "600416749",
    "stopname": "Grantham St Before Simper St",
    "lat": -31.9343881,
    "lon": 115.8095383
  },
  {
    "stopid": "600416751",
    "stopname": "Grantham St Before Simper St",
    "lat": -31.9342625,
    "lon": 115.8086765
  },
  {
    "stopid": "600416779",
    "stopname": "Hay St Before Denis St",
    "lat": -31.947075,
    "lon": 115.8225366
  },
  {
    "stopid": "600432179",
    "stopname": "Mounts Bay Rd before Wingfield Av",
    "lat": -31.9733568,
    "lon": 115.8259386
  },
  {
    "stopid": "600432189",
    "stopname": "Nicholson Rd After Derby Rd",
    "lat": -31.9562706,
    "lon": 115.8160017
  },
  {
    "stopid": "600432225",
    "stopname": "Nicholson Rd after Henry St",
    "lat": -31.9564128,
    "lon": 115.8181446
  },
  {
    "stopid": "600432229",
    "stopname": "Thomas St Nicholson Road Cat Id 111",
    "lat": -31.9565959,
    "lon": 115.8267952
  },
  {
    "stopid": "600432261",
    "stopname": "Bagot Rd After Salisbury St",
    "lat": -31.9504833,
    "lon": 115.8252292
  },
  {
    "stopid": "600432293",
    "stopname": "Bagot Rd After Salisbury St",
    "lat": -31.9503732,
    "lon": 115.8261545
  },
  {
    "stopid": "600432330",
    "stopname": "Thomas St Hamersley Road Cat Id 109",
    "lat": -31.9522946,
    "lon": 115.831807
  },
  {
    "stopid": "600730131",
    "stopname": "Capo D'Orlando Drive",
    "lat": -32.0659964,
    "lon": 115.7506695
  },
  {
    "stopid": "601466814",
    "stopname": "Bus stop",
    "lat": -31.8350449,
    "lon": 115.7742775
  },
  {
    "stopid": "601466820",
    "stopname": "Bus stop",
    "lat": -31.8346993,
    "lon": 115.7746882
  },
  {
    "stopid": "601466822",
    "stopname": "Bus stop",
    "lat": -31.8391033,
    "lon": 115.7833969
  },
  {
    "stopid": "601466824",
    "stopname": "Davallia Rd Before Trenton Wy",
    "lat": -31.8394095,
    "lon": 115.7863667
  },
  {
    "stopid": "602110159",
    "stopname": "Peninsula Av After Island Pl",
    "lat": -31.7647532,
    "lon": 115.7615453
  },
  {
    "stopid": "602110160",
    "stopname": "Bus stop",
    "lat": -31.7617288,
    "lon": 115.761024
  },